{"geocoded_waypoints": [{"geocoder_status": "OK", "place_id": "ChIJ_4Bie1Kzt0wRIQkO9HZY8Zo", "types": ["establishment", "point_of_interest"]}, {"geocoder_status": "OK", "place_id": "ChIJbf7mAXyzt0wRLhMg5l88IZ0", "types": ["bus_station", "establishment", "point_of_interest", "transit_station"]}], "routes": [{"bounds": {"northeast": {"lat": 45.4095666, "lng": -71.917532}, "southwest": {"lat": 45.3796395, "lng": -71.9280435}}, "copyrights": "Map data \u00a92018 Google", "fare": {"currency": "CAD", "text": "CA$3.30", "value": 3.3}, "legs": [{"arrival_time": {"text": "2:02pm", "time_zone": "America/Toronto", "value": 1522778534}, "departure_time": {"text": "1:47pm", "time_zone": "America/Toronto", "value": 1522777660}, "distance": {"text": "4.1 km", "value": 4123}, "duration": {"text": "15 mins", "value": 874}, "end_address": "Sherbrooke, QC J1J 3A5, Canada", "end_location": {"lat": 45.4095666, "lng": -71.91843709999999}, "start_address": "2500 Bd de l'Universit\u00e9, Sherbrooke, QC J1K 2R1, Canada", "start_location": {"lat": 45.3798719, "lng": -71.92545539999999}, "steps": [{"distance": {"text": "0.5 km", "value": 467}, "duration": {"text": "5 mins", "value": 310}, "end_location": {"lat": 45.382214, "lng": -71.927936}, "html_instructions": "Walk to boul. de l'Universit\u00e9 / Cabana", "polyline": {"points": "eg~sGb}~uLVA@BBF@@CHL`ABLEJShABLEFEJCN?N?PAz@M@{AAA`@iB?qB?mAA?nAu@fAMS"}, "start_location": {"lat": 45.3798719, "lng": -71.92545539999999}, "steps": [{"distance": {"text": "14 m", "value": 14}, "duration": {"text": "1 min", "value": 12}, "end_location": {"lat": 45.3797465, "lng": -71.9254467}, "html_instructions": "Head <b>south</b>", "polyline": {"points": "eg~sGb}~uLVA"}, "start_location": {"lat": 45.3798719, "lng": -71.92545539999999}, "travel_mode": "WALKING"}, {"distance": {"text": "45 m", "value": 45}, "duration": {"text": "1 min", "value": 29}, "end_location": {"lat": 45.3796395, "lng": -71.9259694}, "html_instructions": "Turn <b>right</b> toward <b>Voie 7</b>", "maneuver": "turn-right", "polyline": {"points": "mf~sG`}~uL@BBF@@CHL`ABL"}, "start_location": {"lat": 45.3797465, "lng": -71.9254467}, "travel_mode": "WALKING"}, {"distance": {"text": "0.1 km", "value": 97}, "duration": {"text": "1 min", "value": 65}, "end_location": {"lat": 45.379836, "lng": -71.92712209999999}, "html_instructions": "Turn <b>right</b> onto <b>Voie 7</b>", "maneuver": "turn-right", "polyline": {"points": "we~sGh`_vLEJShABLEFEJCN?N?PAz@"}, "start_location": {"lat": 45.3796395, "lng": -71.9259694}, "travel_mode": "WALKING"}, {"distance": {"text": "60 m", "value": 60}, "duration": {"text": "1 min", "value": 38}, "end_location": {"lat": 45.380373, "lng": -71.92712329999999}, "html_instructions": "Turn <b>right</b> toward <b>Voie 5</b>", "maneuver": "turn-right", "polyline": {"points": "_g~sGng_vLM@{AA"}, "start_location": {"lat": 45.379836, "lng": -71.92712209999999}, "travel_mode": "WALKING"}, {"distance": {"text": "13 m", "value": 13}, "duration": {"text": "1 min", "value": 10}, "end_location": {"lat": 45.3803776, "lng": -71.92729109999999}, "html_instructions": "Turn <b>left</b> toward <b>Voie 5</b>", "maneuver": "turn-left", "polyline": {"points": "ij~sGng_vLA`@"}, "start_location": {"lat": 45.380373, "lng": -71.92712329999999}, "travel_mode": "WALKING"}, {"distance": {"text": "0.2 km", "value": 166}, "duration": {"text": "2 mins", "value": 109}, "end_location": {"lat": 45.3818663, "lng": -71.927281}, "html_instructions": "Turn <b>right</b> onto <b>Voie 5</b>", "maneuver": "turn-right", "polyline": {"points": "kj~sGph_vLiB?qB?mAA"}, "start_location": {"lat": 45.3803776, "lng": -71.92729109999999}, "travel_mode": "WALKING"}, {"distance": {"text": "31 m", "value": 31}, "duration": {"text": "1 min", "value": 20}, "end_location": {"lat": 45.3818701, "lng": -71.92768339999999}, "html_instructions": "Turn <b>left</b> onto <b>Voie 8</b>", "maneuver": "turn-left", "polyline": {"points": "us~sGnh_vL?nA"}, "start_location": {"lat": 45.3818663, "lng": -71.927281}, "travel_mode": "WALKING"}, {"distance": {"text": "41 m", "value": 41}, "duration": {"text": "1 min", "value": 27}, "end_location": {"lat": 45.382214, "lng": -71.927936}, "html_instructions": "Turn <b>right</b><div style=\"font-size:0.9em\">Destination will be on the right</div>", "maneuver": "turn-right", "polyline": {"points": "us~sG~j_vLu@fAMS"}, "start_location": {"lat": 45.3818701, "lng": -71.92768339999999}, "travel_mode": "WALKING"}], "travel_mode": "WALKING"}, {"distance": {"text": "3.5 km", "value": 3541}, "duration": {"text": "7 mins", "value": 429}, "end_location": {"lat": 45.408528, "lng": -71.918371}, "html_instructions": "Bus towards Prospect / Ontario", "polyline": {"points": "yu~sGrl_vLIDSo@c@kASm@Yo@]q@]o@g@s@m@}@[m@OQUQUUMMc@e@i@c@iAy@m@a@SI[OqAg@iCu@YMWIWOOUK[E[CQ@}C@{B@OBmHBmE@iA?w@EwB?}@qDLgAXWLKFWRg@`@SLOJsHb@C?gJ`@_ADuFV{@Fi@BuA@Q?qCC_@@gFEOAQIwCEyCAKAQCy@AmNGgIEI?UA_ACG?WEU?}@FC@]BiNImJE?W"}, "start_location": {"lat": 45.382214, "lng": -71.927936}, "transit_details": {"arrival_stop": {"location": {"lat": 45.408528, "lng": -71.918371}, "name": "Prospect / boul. Jacques-Cartier"}, "arrival_time": {"text": "2:00pm", "time_zone": "America/Toronto", "value": 1522778400}, "departure_stop": {"location": {"lat": 45.382214, "lng": -71.927936}, "name": "boul. de l'Universit\u00e9 / Cabana"}, "departure_time": {"text": "1:52pm", "time_zone": "America/Toronto", "value": 1522777971}, "headsign": "Prospect / Ontario", "line": {"agencies": [{"name": "Soci\u00e9t\u00e9 de Transport de Sherbrooke", "phone": "1 (819) 564-2687", "url": "http://www.sts.qc.ca/"}], "color": "#424242", "name": "Universit\u00e9 de Sherbrooke <> Ontario - Prospect", "short_name": "16", "text_color": "#ffffff", "vehicle": {"icon": "//maps.gstatic.com/mapfiles/transit/iw2/6/bus2.png", "name": "Bus", "type": "BUS"}}, "num_stops": 12}, "travel_mode": "TRANSIT"}, {"distance": {"text": "0.1 km", "value": 115}, "duration": {"text": "2 mins", "value": 104}, "end_location": {"lat": 45.4095666, "lng": -71.91843709999999}, "html_instructions": "Walk to Sherbrooke, QC J1J 3A5, Canada", "polyline": {"points": "izctGxp}uL?PyBGQ?cAB"}, "start_location": {"lat": 45.408528, "lng": -71.918371}, "steps": [{"distance": {"text": "0.1 km", "value": 115}, "duration": {"text": "2 mins", "value": 104}, "end_location": {"lat": 45.4095666, "lng": -71.91843709999999}, "html_instructions": "Head <b>north</b> on <b>Boulevard Jacques-Cartier N</b> toward <b>Rue Prospect</b><div style=\"font-size:0.9em\">Destination will be on the right</div>", "polyline": {"points": "izctGxp}uL?PyBGQ?cAB"}, "start_location": {"lat": 45.408528, "lng": -71.918371}, "travel_mode": "WALKING"}], "travel_mode": "WALKING"}], "traffic_speed_entry": [], "via_waypoint": []}], "overview_polyline": {"points": "eg~sGb}~uLVA@BDHCHL`ABLEJShABLKRC^AlAiB?A`@iB?_EA?nAu@fAMSIDw@{Bm@}A{@aBuAqBk@_A}A{AsB}AaAk@mBw@cDcAo@YOUK[Im@ByGJuQEoD?}@qDL_Bf@c@Z{@n@OJsHb@kJ`@uH\\eBJgB@iLIQIwCEeDCQCy@AuXMgBEm@EaAH]BiNImJE?W?PyBGuAB"}, "summary": "", "warnings": ["Walking directions are in beta.    Use caution \u2013 This route may be missing sidewalks or pedestrian paths."], "waypoint_order": []}], "status": "OK"}