{"geocoded_waypoints": [{"geocoder_status": "OK", "partial_match": true, "place_id": "ChIJBUnsLhGzt0wRgJewKc9fr84", "types": ["establishment", "point_of_interest", "shopping_mall"]}, {"geocoder_status": "OK", "place_id": "ChIJj8nlPKazt0wRtN35m7P1nZg", "types": ["establishment", "park", "point_of_interest"]}], "routes": [{"bounds": {"northeast": {"lat": 45.41324400000001, "lng": -71.88310059999999}, "southwest": {"lat": 45.3952868, "lng": -71.89867}}, "copyrights": "Map data \u00a92018 Google", "fare": {"currency": "CAD", "text": "CA$3.30", "value": 3.3}, "legs": [{"arrival_time": {"text": "2:09pm", "time_zone": "America/Toronto", "value": 1522778977}, "departure_time": {"text": "1:54pm", "time_zone": "America/Toronto", "value": 1522778097}, "distance": {"text": "3.3 km", "value": 3305}, "duration": {"text": "15 mins", "value": 880}, "end_address": "Parc Sylvie-Daigle, 400 Rue du C\u00e9gep, Sherbrooke, QC J1E 2J9, Canada", "end_location": {"lat": 45.4116885, "lng": -71.883163}, "start_address": "340 Rue Belv\u00e9d\u00e8re S, Sherbrooke, QC J1H 4B5, Canada", "start_location": {"lat": 45.3952868, "lng": -71.8947781}, "steps": [{"distance": {"text": "0.2 km", "value": 160}, "duration": {"text": "2 mins", "value": 122}, "end_location": {"lat": 45.395865, "lng": -71.895999}, "html_instructions": "Walk to Belv\u00e9d\u00e8re Sud (le Centre Sherbrooke)", "polyline": {"points": "qgatGj}xuLAp@GjCAd@Cb@cBC@O"}, "start_location": {"lat": 45.3952868, "lng": -71.8947781}, "steps": [{"distance": {"text": "0.1 km", "value": 104}, "duration": {"text": "1 min", "value": 87}, "end_location": {"lat": 45.3953668, "lng": -71.8961003}, "html_instructions": "Head <b>west</b> toward <b>Rue Belv\u00e9d\u00e8re S</b>", "polyline": {"points": "qgatGj}xuLAp@GjCAd@Cb@"}, "start_location": {"lat": 45.3952868, "lng": -71.8947781}, "travel_mode": "WALKING"}, {"distance": {"text": "56 m", "value": 56}, "duration": {"text": "1 min", "value": 35}, "end_location": {"lat": 45.395865, "lng": -71.895999}, "html_instructions": "Turn <b>right</b> onto <b>Rue Belv\u00e9d\u00e8re S</b><div style=\"font-size:0.9em\">Destination will be on the right</div>", "maneuver": "turn-right", "polyline": {"points": "ahatGreyuLcBC@O"}, "start_location": {"lat": 45.3953668, "lng": -71.8961003}, "travel_mode": "WALKING"}], "travel_mode": "WALKING"}, {"distance": {"text": "3.0 km", "value": 3022}, "duration": {"text": "11 mins", "value": 660}, "end_location": {"lat": 45.41145299999999, "lng": -71.884168}, "html_instructions": "Bus towards Chardonnerets / Marika", "polyline": {"points": "ckatG~dyuL?Nu@@KDG?yCQgAAC?i@?KDu@^m@d@o@b@s@d@mEjCGBk@TA@k@`@a@\\cBfAoAz@UNYy@]u@c@s@sAqCCQAIcC}EsF}KU[s@\\IF}BpA_@^MNCBu@x@sCxCcAjAKJYOGGGIIOSWCEQUe@q@Wc@MSS_@a@_AY{@K[yEuOYiAe@wAKW[w@_@o@_BgCCUwBgDOWsBaDwA}B_@m@}DeGj@w@DKlAuBHYVq@LMFING`AUFV^`E?JBJDHHDF@F?HCLIDKBM?MQaB"}, "start_location": {"lat": 45.395865, "lng": -71.895999}, "transit_details": {"arrival_stop": {"location": {"lat": 45.41145299999999, "lng": -71.884168}, "name": "Station du C\u00e9gep - Quai F"}, "arrival_time": {"text": "2:08pm", "time_zone": "America/Toronto", "value": 1522778880}, "departure_stop": {"location": {"lat": 45.395865, "lng": -71.895999}, "name": "Belv\u00e9d\u00e8re Sud (le Centre Sherbrooke)"}, "departure_time": {"text": "1:57pm", "time_zone": "America/Toronto", "value": 1522778220}, "headsign": "Chardonnerets / Marika", "line": {"agencies": [{"name": "Soci\u00e9t\u00e9 de Transport de Sherbrooke", "phone": "1 (819) 564-2687", "url": "http://www.sts.qc.ca/"}], "color": "#994500", "name": "Universit\u00e9 de Sherbrooke <> des Chardonnerets", "short_name": "9", "text_color": "#ffffff", "vehicle": {"icon": "//maps.gstatic.com/mapfiles/transit/iw2/6/bus2.png", "name": "Bus", "type": "BUS"}}, "num_stops": 13}, "travel_mode": "TRANSIT"}, {"distance": {"text": "0.1 km", "value": 123}, "duration": {"text": "2 mins", "value": 96}, "end_location": {"lat": 45.4116885, "lng": -71.883163}, "html_instructions": "Walk to Parc Sylvie-Daigle, 400 Rue du C\u00e9gep, Sherbrooke, QC J1E 2J9, Canada", "polyline": {"points": "qldtG`{vuL?J@?XK]mCKgAa@J"}, "start_location": {"lat": 45.41145299999999, "lng": -71.884168}, "steps": [{"distance": {"text": "16 m", "value": 16}, "duration": {"text": "1 min", "value": 10}, "end_location": {"lat": 45.4113119, "lng": -71.8841726}, "html_instructions": "Head <b>south</b>", "polyline": {"points": "qldtG`{vuL?J@?XK"}, "start_location": {"lat": 45.41145299999999, "lng": -71.884168}, "travel_mode": "WALKING"}, {"distance": {"text": "87 m", "value": 87}, "duration": {"text": "1 min", "value": 68}, "end_location": {"lat": 45.4115168, "lng": -71.88310059999999}, "html_instructions": "Turn <b>left</b>", "maneuver": "turn-left", "polyline": {"points": "ukdtG`{vuL]mCKgA"}, "start_location": {"lat": 45.4113119, "lng": -71.8841726}, "travel_mode": "WALKING"}, {"distance": {"text": "20 m", "value": 20}, "duration": {"text": "1 min", "value": 18}, "end_location": {"lat": 45.4116885, "lng": -71.883163}, "html_instructions": "Turn <b>left</b><div style=\"font-size:0.9em\">Destination will be on the right</div>", "maneuver": "turn-left", "polyline": {"points": "_mdtGjtvuLa@J"}, "start_location": {"lat": 45.4115168, "lng": -71.88310059999999}, "travel_mode": "WALKING"}], "travel_mode": "WALKING"}], "traffic_speed_entry": [], "via_waypoint": []}], "overview_polyline": {"points": "qgatGj}xuLOfGcBC@O?Nu@@KDG?yCQgAAm@?aAd@}AhAaGpDu@ZmA~@sDbCUNYy@aAiBsAqCCQeCgFsF}KU[}@d@}BpA_@^QRyGjHa@WQYoAeBe@w@u@_Be@wAyEuOYiAq@oB[w@_@o@_BgCCUgC_EkE_H}EsHp@cAlAuBHYVq@LMVQ`AUFV^lEHTPFPCLIDKB[QaB@JXK]mCKgAa@J"}, "summary": "", "warnings": ["Walking directions are in beta.    Use caution \u2013 This route may be missing sidewalks or pedestrian paths."], "waypoint_order": []}], "status": "OK"}