{"geocoded_waypoints": [{"geocoder_status": "OK", "place_id": "ChIJczwxWwWzt0wRzb4KUd8rLG0", "types": ["bus_station", "establishment", "point_of_interest", "transit_station"]}, {"geocoder_status": "OK", "partial_match": true, "place_id": "ChIJBUnsLhGzt0wRgJewKc9fr84", "types": ["establishment", "point_of_interest", "shopping_mall"]}], "routes": [{"bounds": {"northeast": {"lat": 45.401927, "lng": -71.88848039999999}, "southwest": {"lat": 45.3952868, "lng": -71.896842}}, "copyrights": "Map data \u00a92018 Google", "fare": {"currency": "CAD", "text": "CA$3.30", "value": 3.3}, "legs": [{"arrival_time": {"text": "3:12pm", "time_zone": "America/Toronto", "value": 1523214760}, "departure_time": {"text": "3:06pm", "time_zone": "America/Toronto", "value": 1523214380}, "distance": {"text": "1.4 km", "value": 1400}, "duration": {"text": "6 mins", "value": 380}, "end_address": "340 Rue Belv\u00e9d\u00e8re S, Sherbrooke, QC J1H 4B5, Canada", "end_location": {"lat": 45.3952868, "lng": -71.8947781}, "start_address": "80 Rue du D\u00e9p\u00f4t, Sherbrooke, QC J1H 5G1, Canada", "start_location": {"lat": 45.400363, "lng": -71.88848039999999}, "steps": [{"distance": {"text": "0.1 km", "value": 137}, "duration": {"text": "2 mins", "value": 100}, "end_location": {"lat": 45.401497, "lng": -71.889139}, "html_instructions": "Walk to Station du D\u00e9p\u00f4t - Quai A", "polyline": {"points": "ggbtG~uwuL{@\\GBULQFC@o@De@Tc@TDV"}, "start_location": {"lat": 45.400363, "lng": -71.88848039999999}, "steps": [{"distance": {"text": "40 m", "value": 40}, "duration": {"text": "1 min", "value": 30}, "end_location": {"lat": 45.40070170000001, "lng": -71.8886495}, "html_instructions": "Head <b>north</b> on <b>Rue du D\u00e9p\u00f4t</b>", "polyline": {"points": "ggbtG~uwuL{@\\GB"}, "start_location": {"lat": 45.400363, "lng": -71.88848039999999}, "travel_mode": "WALKING"}, {"distance": {"text": "0.1 km", "value": 97}, "duration": {"text": "1 min", "value": 70}, "end_location": {"lat": 45.401497, "lng": -71.889139}, "html_instructions": "Slight <b>left</b> to stay on <b>Rue du D\u00e9p\u00f4t</b><div style=\"font-size:0.9em\">Destination will be on the left</div>", "maneuver": "turn-slight-left", "polyline": {"points": "kibtG`wwuLULQFC@o@De@Tc@TDV"}, "start_location": {"lat": 45.40070170000001, "lng": -71.8886495}, "travel_mode": "WALKING"}], "travel_mode": "WALKING"}, {"distance": {"text": "1.1 km", "value": 1143}, "duration": {"text": "3 mins", "value": 180}, "end_location": {"lat": 45.395419, "lng": -71.896304}, "html_instructions": "Bus towards Habitat / Andr\u00e9", "polyline": {"points": "knbtGbzwuLEUA?y@^SLlIrSz@zCNj@rAzFPt@dAdEr@vCTM|@o@d@Yl@e@t@_@JEl@?fA@xCPF?JDNB|BF?P"}, "start_location": {"lat": 45.401497, "lng": -71.889139}, "transit_details": {"arrival_stop": {"location": {"lat": 45.395419, "lng": -71.896304}, "name": "Belv\u00e9d\u00e8re Sud (le Centre Sherbrooke)"}, "arrival_time": {"text": "3:11pm", "time_zone": "America/Toronto", "value": 1523214660}, "departure_stop": {"location": {"lat": 45.401497, "lng": -71.889139}, "name": "Station du D\u00e9p\u00f4t - Quai A"}, "departure_time": {"text": "3:08pm", "time_zone": "America/Toronto", "value": 1523214480}, "headsign": "Habitat / Andr\u00e9", "line": {"agencies": [{"name": "Soci\u00e9t\u00e9 de Transport de Sherbrooke", "phone": "1 (819) 564-2687", "url": "http://www.sts.qc.ca/"}], "color": "#d50000", "name": "Andr\u00e9 / Hall\u00e9e <> CHUS - Fleurimont", "short_name": "7", "text_color": "#ffffff", "vehicle": {"icon": "//maps.gstatic.com/mapfiles/transit/iw2/6/bus2.png", "name": "Bus", "type": "BUS"}}, "num_stops": 4}, "travel_mode": "TRANSIT"}, {"distance": {"text": "0.1 km", "value": 120}, "duration": {"text": "2 mins", "value": 99}, "end_location": {"lat": 45.3952868, "lng": -71.8947781}, "html_instructions": "Walk to 340 Rue Belv\u00e9d\u00e8re S, Sherbrooke, QC J1H 4B5, Canada", "polyline": {"points": "khatGzfyuLF@@K?]Bc@@e@FkC@q@"}, "start_location": {"lat": 45.395419, "lng": -71.896304}, "steps": [{"distance": {"text": "0.1 km", "value": 120}, "duration": {"text": "2 mins", "value": 99}, "end_location": {"lat": 45.3952868, "lng": -71.8947781}, "html_instructions": "Head <b>east</b> toward <b>Rue Belv\u00e9d\u00e8re S</b><div style=\"font-size:0.9em\">Destination will be on the left</div>", "polyline": {"points": "khatGzfyuLF@@K?]Bc@@e@FkC@q@"}, "start_location": {"lat": 45.395419, "lng": -71.896304}, "travel_mode": "WALKING"}], "travel_mode": "WALKING"}], "traffic_speed_entry": [], "via_waypoint": []}], "overview_polyline": {"points": "ggbtG~uwuLkBv@s@FiAj@DVEU{@^SLlIrSjAfEdBpHxB|IxBwAl@e@t@_@JEl@?fA@xCPRDlCJ?PF@@i@DiAH}D"}, "summary": "", "warnings": ["Walking directions are in beta.    Use caution \u2013 This route may be missing sidewalks or pedestrian paths."], "waypoint_order": []}], "status": "OK"}