{"geocoded_waypoints": [{"geocoder_status": "OK", "place_id": "ChIJQwOsN_-0t0wRotSuUmiKUN8", "types": ["establishment", "point_of_interest"]}, {"geocoder_status": "OK", "place_id": "ChIJ_4Bie1Kzt0wRIQkO9HZY8Zo", "types": ["establishment", "point_of_interest"]}], "routes": [{"bounds": {"northeast": {"lat": 45.425052, "lng": -71.92394809999999}, "southwest": {"lat": 45.372355, "lng": -71.9648201}}, "copyrights": "Map data \u00a92018 Google", "fare": {"currency": "CAD", "text": "CA$3.30", "value": 3.3}, "legs": [{"arrival_time": {"text": "2:43pm", "time_zone": "America/Toronto", "value": 1522781036}, "departure_time": {"text": "2:11pm", "time_zone": "America/Toronto", "value": 1522779105}, "distance": {"text": "14.7 km", "value": 14725}, "duration": {"text": "32 mins", "value": 1931}, "end_address": "2500 Bd de l'Universit\u00e9, Sherbrooke, QC J1K 2R1, Canada", "end_location": {"lat": 45.3802377, "lng": -71.92496489999999}, "start_address": "1600 Boulevard du Plateau-Saint-Joseph, Sherbrooke, QC J1L 0C8, Canada", "start_location": {"lat": 45.4225888, "lng": -71.9648201}, "steps": [{"distance": {"text": "0.3 km", "value": 278}, "duration": {"text": "3 mins", "value": 209}, "end_location": {"lat": 45.42458999999999, "lng": -71.96291}, "html_instructions": "Walk to boul. du P. Saint-Joseph / boul. de Mgr-Fortier", "polyline": {"points": "erftGbsfvLqB{BoAqAUUWO[Qc@]w@_@k@UDc@A?"}, "start_location": {"lat": 45.4225888, "lng": -71.9648201}, "steps": [{"distance": {"text": "0.3 km", "value": 264}, "duration": {"text": "3 mins", "value": 195}, "end_location": {"lat": 45.4246059, "lng": -71.9630858}, "html_instructions": "Head <b>northeast</b> on <b>Boulevard du Plateau-Saint-Joseph</b>", "polyline": {"points": "erftGbsfvLqB{BoAqAUUWO[Qc@]w@_@k@U"}, "start_location": {"lat": 45.4225888, "lng": -71.9648201}, "travel_mode": "WALKING"}, {"distance": {"text": "14 m", "value": 14}, "duration": {"text": "1 min", "value": 14}, "end_location": {"lat": 45.42458999999999, "lng": -71.96291}, "html_instructions": "Turn <b>right</b>", "maneuver": "turn-right", "polyline": {"points": "y~ftGhhfvLDc@A?"}, "start_location": {"lat": 45.4246059, "lng": -71.9630858}, "travel_mode": "WALKING"}], "travel_mode": "WALKING"}, {"distance": {"text": "14.3 km", "value": 14271}, "duration": {"text": "27 mins", "value": 1605}, "end_location": {"lat": 45.381538, "lng": -71.92404499999999}, "html_instructions": "Bus towards Universit\u00e9 Bishop's", "polyline": {"points": "u~ftGdgfvLMCF}@RkCHyCCaBAqAo@cNWyKMeFUy]A_MhACjOFlVHv@Gr@M`@Mf@Ud@Wt@k@p@w@h@w@zDsH~@{AtA}AtA_AvAg@FATGFr@JlBBVChE?VjF?^?@CBBzCA`NAhL?hCEb@AuAjGqAzEc@dBk@`CUv@w@jCeAjCOb@KXkAqAiAmA_@v@O\\KP[\\KNOPMRQZKNa@hAWt@CTMf@EVc@hBQf@CDIRKNMNMJOJ]HC?wB??pC@jF@~A@v@?p@tA@~ACl@A|KET@R?@?J?bAI`AU^Of@_@jAq@|B}AvCoBf@e@RS^q@L[^uAJSJQLOLKXODCVEFAL?xA?LAjCGBhAjACCsBCgAkAF@pAkCH@XBlBbAdn@?@?l@B`GARAPEPEPKNIJIFMFOFeBb@Q@qBLGcCAy@?[@]B[F[HYJYLUPSRQTMj@Sn@M`BSbSaBzAQ|B[bC_@~@SnGcB|J}Cv@Qr{Awd@fCaAbBw@x@a@pAs@hAs@tByArCwBrFuE~@s@^SXMXGl@GX?b@F`@LXLVP\\\\RXTd@N^J`@DVFd@Db@@f@?d@Cd@Kz@Mn@M^O\\W`@g@n@mC|CUVWRQF[B[CQGWSk@y@Wi@q@qAq@sAu@{Ac@y@m@iAMWiF_K{KcT_AoBmByDACYm@EOUm@So@YaAc@mBCQ[qBK_AIaAEs@AQI{BY_f@?s@Ag@EsIAQAw@Ai@A[A]AOC_@Io@G]?GAGEQE]Me@S{@Qu@K_@IYMc@Mc@GUKYK]GQQe@Qe@Sm@Yo@]q@]o@g@s@m@}@[m@LSP]P[NS?Ap@eA^q@FYf@UjACjAH^S^g@FJ"}, "start_location": {"lat": 45.42458999999999, "lng": -71.96291}, "transit_details": {"arrival_stop": {"location": {"lat": 45.381538, "lng": -71.92404499999999}, "name": "Universit\u00e9 de Sherbrooke (Sciences)"}, "arrival_time": {"text": "2:41pm", "time_zone": "America/Toronto", "value": 1522780905}, "departure_stop": {"location": {"lat": 45.42458999999999, "lng": -71.96291}, "name": "boul. du P. Saint-Joseph / boul. de Mgr-Fortier"}, "departure_time": {"text": "2:15pm", "time_zone": "America/Toronto", "value": 1522779300}, "headsign": "Universit\u00e9 Bishop's", "line": {"agencies": [{"name": "Soci\u00e9t\u00e9 de Transport de Sherbrooke", "phone": "1 (819) 564-2687", "url": "http://www.sts.qc.ca/"}], "color": "#ffea00", "name": "Universit\u00e9 Bishop's <> Plateau Saint-Joseph", "short_name": "11", "text_color": "#000000", "vehicle": {"icon": "//maps.gstatic.com/mapfiles/transit/iw2/6/bus2.png", "name": "Bus", "type": "BUS"}}, "num_stops": 26}, "travel_mode": "TRANSIT"}, {"distance": {"text": "0.2 km", "value": 176}, "duration": {"text": "2 mins", "value": 131}, "end_location": {"lat": 45.3802377, "lng": -71.92496489999999}, "html_instructions": "Walk to 2500 Bd de l'Universit\u00e9, Sherbrooke, QC J1K 2R1, Canada", "polyline": {"points": "sq~sGft~uLDFPY|AfCBBN?j@b@LLFDDBF@h@?"}, "start_location": {"lat": 45.381538, "lng": -71.92404499999999}, "steps": [{"distance": {"text": "15 m", "value": 15}, "duration": {"text": "1 min", "value": 17}, "end_location": {"lat": 45.38142070000001, "lng": -71.92394809999999}, "html_instructions": "Head <b>southeast</b>", "polyline": {"points": "sq~sGft~uLDFPY"}, "start_location": {"lat": 45.381538, "lng": -71.92404499999999}, "travel_mode": "WALKING"}, {"distance": {"text": "0.2 km", "value": 161}, "duration": {"text": "2 mins", "value": 114}, "end_location": {"lat": 45.3802377, "lng": -71.92496489999999}, "html_instructions": "Turn <b>right</b>", "maneuver": "turn-right", "polyline": {"points": "{p~sGts~uL|AfCBBN?j@b@LLFDDBF@h@?"}, "start_location": {"lat": 45.38142070000001, "lng": -71.92394809999999}, "travel_mode": "WALKING"}], "travel_mode": "WALKING"}], "traffic_speed_entry": [], "via_waypoint": []}], "overview_polyline": {"points": "erftGbsfvLaEmEm@e@[Qc@]cBu@Bc@MCF}@RkCHyCEsDo@cNWyKMeFUy]A_MhACxf@Pv@Gr@MhAc@zAcAzAoBzDsH~@{AtA}AtA_A~Ai@TGFr@NdCC`FpG?|RChL?hCEb@AuAjGuB`IaAxDw@jCeAjC[|@uC_Do@tAg@n@[`@_@n@KNa@hA[jAS~@u@pCMXY^]Va@HwB??pCBjI@hBtA@~ACjMGh@@L?bAI`AU^Of@_@hEoCvCoBf@e@RS^q@l@qBVe@Z[^S^GfB?xCIBhAjACG{DkAF@pAkCH@XfArq@?n@@tGGb@Q`@SR]NeBb@Q@qBLGcCAuADy@Pu@Xo@d@e@`Aa@n@M`BS~UsB`G{@~@SnGcBtLoDr{Awd@fCaA|CyAzCgBtByArCwBrHiGx@a@XGl@G|@Fz@Zt@n@h@~@Z`AL|@FjACjAKz@Mn@]|@_ApAcDtDi@Z[B[CQGWSk@y@Wi@cBeDyAuCaUec@mDiH[q@[}@m@qBg@_Cg@qDOuBKmCa@os@GoCCm@MoAO_AScAe@qBq@aC_@mA_AkCw@aBeAcBiAkB^q@rAwB^q@FYf@UjACjAH^S^g@FJDFPY`BjCN?j@b@TRLDh@?"}, "summary": "", "warnings": ["Walking directions are in beta.    Use caution \u2013 This route may be missing sidewalks or pedestrian paths."], "waypoint_order": []}], "status": "OK"}