{"geocoded_waypoints": [{"geocoder_status": "OK", "partial_match": true, "place_id": "ChIJab28aA6zt0wR43NnFVrQMQk", "types": ["establishment", "point_of_interest", "school", "university"]}, {"geocoder_status": "OK", "partial_match": true, "place_id": "ChIJ3zHB6mlLtkwRG7uBUS0kS18", "types": ["establishment", "point_of_interest", "school"]}], "routes": [{"bounds": {"northeast": {"lat": 45.4025585, "lng": -71.8922577}, "southwest": {"lat": 45.3638068, "lng": -71.973657}}, "copyrights": "Map data \u00a92018 Google", "fare": {"currency": "CAD", "text": "CA$3.30", "value": 3.3}, "legs": [{"arrival_time": {"text": "2:40pm", "time_zone": "America/Toronto", "value": 1522780830}, "departure_time": {"text": "1:48pm", "time_zone": "America/Toronto", "value": 1522777726}, "distance": {"text": "10.0 km", "value": 9966}, "duration": {"text": "52 mins", "value": 3104}, "end_address": "700, rue Andr\u00e9-Mathieu, Sherbrooke, QC J1N 0Z9, Canada", "end_location": {"lat": 45.3640116, "lng": -71.973657}, "start_address": "195 Rue Marquette, Sherbrooke, QC J1H 1L6, Canada", "start_location": {"lat": 45.4025585, "lng": -71.89372759999999}, "steps": [{"distance": {"text": "0.4 km", "value": 363}, "duration": {"text": "5 mins", "value": 276}, "end_location": {"lat": 45.400007, "lng": -71.89336999999999}, "html_instructions": "Walk to King Ouest / Peel", "polyline": {"points": "_ubtGxvxuLTJt@o@d@_@xBwAxCqBd@WR`@HRL`@FXPn@Nl@CL"}, "start_location": {"lat": 45.4025585, "lng": -71.89372759999999}, "steps": [{"distance": {"text": "13 m", "value": 13}, "duration": {"text": "1 min", "value": 14}, "end_location": {"lat": 45.4024539, "lng": -71.8937883}, "html_instructions": "Head <b>south</b> on <b>Rue Marquette</b> toward <b>Rue de la Cath\u00e9drale</b>", "polyline": {"points": "_ubtGxvxuLTJ"}, "start_location": {"lat": 45.4025585, "lng": -71.89372759999999}, "travel_mode": "WALKING"}, {"distance": {"text": "0.3 km", "value": 256}, "duration": {"text": "3 mins", "value": 187}, "end_location": {"lat": 45.4004187, "lng": -71.8922577}, "html_instructions": "Turn <b>left</b> onto <b>Rue de la Cath\u00e9drale</b>", "maneuver": "turn-left", "polyline": {"points": "itbtGdwxuLt@o@d@_@xBwAxCqBd@W"}, "start_location": {"lat": 45.4024539, "lng": -71.8937883}, "travel_mode": "WALKING"}, {"distance": {"text": "94 m", "value": 94}, "duration": {"text": "1 min", "value": 75}, "end_location": {"lat": 45.400007, "lng": -71.89336999999999}, "html_instructions": "Turn <b>right</b> onto <b>Rue King O</b>/<b>QC-112 O</b>", "maneuver": "turn-right", "polyline": {"points": "sgbtGrmxuLR`@HRL`@FXPn@Nl@CL"}, "start_location": {"lat": 45.4004187, "lng": -71.8922577}, "travel_mode": "WALKING"}], "travel_mode": "WALKING"}, {"distance": {"text": "5.7 km", "value": 5671}, "duration": {"text": "17 mins", "value": 998}, "end_location": {"lat": 45.388334, "lng": -71.960043}, "html_instructions": "Bus towards Carrefour de l'Estrie", "polyline": {"points": "aebtGptxuLHENj@rAzFPt@bAdEdB`HFV@LDRDl@BXBH?Pk@fM?DM~DAXAH?NAHYlHI`CCzA?d@AVZlQ?H@RF`M@bB?B?L@fEDvHBdG@ZGf@BrE@rAB`J?fEFvGBjBDnBN|DNnCBb@@TNnCDv@DdABvB?fAI|BCl@MxCQxFEvF?XB~FDtEHbI?r@@~@ThWDrEH`CBPFx@Fp@L~@L~@Pz@TdAr@hCNd@j@jBxCjKrBjHBFb@~ARp@`EnNnBxGRt@?B^lADJbC|IXbA`AxC~@dDbAxBz@|An@|@XXn@p@lAz@z@f@hBpAv@b@dAv@`DlBAF"}, "start_location": {"lat": 45.400007, "lng": -71.89336999999999}, "transit_details": {"arrival_stop": {"location": {"lat": 45.388334, "lng": -71.960043}, "name": "King / Sauv\u00e9"}, "arrival_time": {"text": "2:10pm", "time_zone": "America/Toronto", "value": 1522779000}, "departure_stop": {"location": {"lat": 45.400007, "lng": -71.89336999999999}, "name": "King Ouest / Peel"}, "departure_time": {"text": "1:53pm", "time_zone": "America/Toronto", "value": 1522778002}, "headsign": "Carrefour de l'Estrie", "line": {"agencies": [{"name": "Soci\u00e9t\u00e9 de Transport de Sherbrooke", "phone": "1 (819) 564-2687", "url": "http://www.sts.qc.ca/"}], "color": "#0277bd", "name": "Carrefour de l'Estrie <> 13e avenue - du 24-Juin", "short_name": "3", "text_color": "#ffffff", "vehicle": {"icon": "//maps.gstatic.com/mapfiles/transit/iw2/6/bus2.png", "name": "Bus", "type": "BUS"}}, "num_stops": 24}, "travel_mode": "TRANSIT"}, {"distance": {"text": "1 m", "value": 0}, "duration": {"text": "1 min", "value": 0}, "end_location": {"lat": 45.388334, "lng": -71.960043}, "html_instructions": "Walk to King / Sauv\u00e9", "polyline": {"points": "a|_tGfuevL"}, "start_location": {"lat": 45.388334, "lng": -71.960043}, "steps": [{"distance": {"text": "1 m", "value": 0}, "duration": {"text": "1 min", "value": 0}, "end_location": {"lat": 45.388334, "lng": -71.960043}, "polyline": {"points": "a|_tGfuevL"}, "start_location": {"lat": 45.388334, "lng": -71.960043}, "travel_mode": "WALKING"}], "travel_mode": "WALKING"}, {"distance": {"text": "3.2 km", "value": 3157}, "duration": {"text": "5 mins", "value": 326}, "end_location": {"lat": 45.368839, "lng": -71.967927}, "html_instructions": "Bus towards Place Dussault", "polyline": {"points": "a|_tGfuevL@G~@j@FD`An@~@r@d@`@b@d@dApA^j@|@~AlB`ER[TY^g@RQJIPKRGREJ?X?RBvHjBRDG|@CxAGxACl@?P@HDHb@dAxDdIvFpLHRpAfC|@nB^r@FPNRJFHDL@pB?L?AoA@aADuBBa@LkAHc@Jc@La@Na@z@kBtAuCjAkCLW?A?AHUJ_@D_@Fa@B_@@W?i@E_D?Sn@G\\C|@AvAFRBh@DTBNBB@NFPFPD@?L@tBv@p@\\PDRLB@XDzITdBn@XTzO`N_@|@CA"}, "start_location": {"lat": 45.388334, "lng": -71.960043}, "transit_details": {"arrival_stop": {"location": {"lat": 45.368839, "lng": -71.967927}, "name": "De Charlemagne / Bertrand-Fabi"}, "arrival_time": {"text": "2:30pm", "time_zone": "America/Toronto", "value": 1522780226}, "departure_stop": {"location": {"lat": 45.388334, "lng": -71.960043}, "name": "King / Sauv\u00e9"}, "departure_time": {"text": "2:25pm", "time_zone": "America/Toronto", "value": 1522779900}, "headsign": "Place Dussault", "line": {"agencies": [{"name": "Soci\u00e9t\u00e9 de Transport de Sherbrooke", "phone": "1 (819) 564-2687", "url": "http://www.sts.qc.ca/"}], "color": "#1a237e", "name": "Station du C\u00e9gep <> Place Dussault", "short_name": "17", "text_color": "#ffffff", "vehicle": {"icon": "//maps.gstatic.com/mapfiles/transit/iw2/6/bus2.png", "name": "Bus", "type": "BUS"}}, "num_stops": 11}, "travel_mode": "TRANSIT"}, {"distance": {"text": "0.8 km", "value": 775}, "duration": {"text": "10 mins", "value": 611}, "end_location": {"lat": 45.3640116, "lng": -71.973657}, "html_instructions": "Walk to 700, rue Andr\u00e9-Mathieu, Sherbrooke, QC J1N 0Z9, Canada", "polyline": {"points": "gb|sGpfgvLHH^_AFFj@n@d@l@l@hAbAnBHPtAzChAdBhAtAdAbAbAv@`An@t@f@~@p@|BzAbAt@Sv@StA"}, "start_location": {"lat": 45.368839, "lng": -71.967927}, "steps": [{"distance": {"text": "30 m", "value": 30}, "duration": {"text": "1 min", "value": 19}, "end_location": {"lat": 45.368627, "lng": -71.96766389999999}, "html_instructions": "Head <b>southeast</b> on <b>Rue de Charlemagne</b> toward <b>Rue Bertrand-Fabi</b>", "polyline": {"points": "gb|sGpfgvLHH^_A"}, "start_location": {"lat": 45.368839, "lng": -71.967927}, "travel_mode": "WALKING"}, {"distance": {"text": "0.7 km", "value": 685}, "duration": {"text": "9 mins", "value": 534}, "end_location": {"lat": 45.3638068, "lng": -71.9729463}, "html_instructions": "Turn <b>right</b> onto <b>Rue Bertrand-Fabi</b>", "maneuver": "turn-right", "polyline": {"points": "}`|sGzdgvLFFj@n@d@l@l@hAbAnBHPtAzChAdBhAtAdAbAbAv@`An@t@f@~@p@|BzAbAt@"}, "start_location": {"lat": 45.368627, "lng": -71.96766389999999}, "travel_mode": "WALKING"}, {"distance": {"text": "60 m", "value": 60}, "duration": {"text": "1 min", "value": 58}, "end_location": {"lat": 45.3640116, "lng": -71.973657}, "html_instructions": "Turn <b>right</b> onto <b>Rue Andr\u00e9-Mathieu</b><div style=\"font-size:0.9em\">Destination will be on the right</div>", "maneuver": "turn-right", "polyline": {"points": "yb{sG|ehvLSv@StA"}, "start_location": {"lat": 45.3638068, "lng": -71.9729463}, "travel_mode": "WALKING"}], "travel_mode": "WALKING"}], "traffic_speed_entry": [], "via_waypoint": []}], "overview_polyline": {"points": "_ubtGxvxuLTJt@o@~CwB~DiC\\t@v@xCCLHEbBfHbEtPPhBBZk@lMQrF[vHM|EA|@ZvQJ|PJrW@ZGf@DfHBhPJbKTlHRrD\\bHB~DMjD_@rKEpGRlYVhYDrEH`CJjATpB^zBhAnEz@pClGvT|FhSbD`LhChJzA|E~@dDbAxBz@|An@|@hAjAhCbBhBpAv@b@dAv@`DlBAF@GfAp@`CbBhAfAdB|B|@~AlB`Eh@u@r@y@JId@S^El@BjIpBKvCKfC@ZzMfYxD~HVd@TL~B@L?AoAFwDPmBTgA\\cAjFeLTy@LaADw@EiE?Sn@GzAEjBJ~@HRDt@TL@tBv@bAb@VNXDzITdBn@XTzO`N_@|@CAHH^_AFFpA|ApBxD~AlDhAdBhAtAdAbAbAv@vBvA|DlCbAt@Sv@StA"}, "summary": "", "warnings": ["Walking directions are in beta.    Use caution \u2013 This route may be missing sidewalks or pedestrian paths."], "waypoint_order": []}], "status": "OK"}