{"geocoded_waypoints": [{"geocoder_status": "OK", "place_id": "ChIJywfUkEyzt0wRPYYdc8CzfbU", "types": ["establishment", "point_of_interest", "university"]}, {"geocoder_status": "OK", "place_id": "ChIJBUzKsl6yt0wRl32gIrmXTJU", "types": ["establishment", "park", "point_of_interest", "premise"]}], "routes": [{"bounds": {"northeast": {"lat": 45.407998, "lng": -71.8490881}, "southwest": {"lat": 45.3772411, "lng": -71.93309599999999}}, "copyrights": "Map data \u00a92018 Google", "fare": {"currency": "CAD", "text": "CA$3.30", "value": 3.3}, "legs": [{"arrival_time": {"text": "2:46pm", "time_zone": "America/Toronto", "value": 1522781201}, "departure_time": {"text": "1:53pm", "time_zone": "America/Toronto", "value": 1522777991}, "distance": {"text": "14.7 km", "value": 14743}, "duration": {"text": "54 mins", "value": 3210}, "end_address": "Parc Desranleau, Sherbrooke, QC J1G 5K4, Canada", "end_location": {"lat": 45.4072373, "lng": -71.84915710000001}, "start_address": "Sherbrooke, QC J1K 2R1, Canada", "start_location": {"lat": 45.3782018, "lng": -71.92569929999999}, "steps": [{"distance": {"text": "0.7 km", "value": 739}, "duration": {"text": "9 mins", "value": 528}, "end_location": {"lat": 45.378944, "lng": -71.92950499999999}, "html_instructions": "Walk to Universit\u00e9 de Sherbrooke - Quai B", "polyline": {"points": "w|}sGr~~uL?x@M??j@?HAvL@AV?vAf@^?n@{@?i@L??G_@A?eAm@??jB?r@?|@?r@?T@\\?b@c@?e@?]@c@?M?M??LA?I?QMGDOLE@CAGAEAEGAE?ACI?AE?"}, "start_location": {"lat": 45.3782018, "lng": -71.92569929999999}, "steps": [{"distance": {"text": "46 m", "value": 46}, "duration": {"text": "1 min", "value": 30}, "end_location": {"lat": 45.3782704, "lng": -71.92620509999999}, "html_instructions": "Head <b>west</b>", "polyline": {"points": "w|}sGr~~uL?x@M??j@"}, "start_location": {"lat": 45.3782018, "lng": -71.92569929999999}, "travel_mode": "WALKING"}, {"distance": {"text": "0.3 km", "value": 322}, "duration": {"text": "4 mins", "value": 238}, "end_location": {"lat": 45.3772449, "lng": -71.9280991}, "html_instructions": "Take the pedestrian tunnel", "polyline": {"points": "e}}sGxa_vL?HAvL@AV?vAf@^?n@{@?i@L??G"}, "start_location": {"lat": 45.3782704, "lng": -71.92620509999999}, "travel_mode": "WALKING"}, {"distance": {"text": "18 m", "value": 18}, "duration": {"text": "1 min", "value": 11}, "end_location": {"lat": 45.3774044, "lng": -71.9280907}, "html_instructions": "Turn <b>left</b> toward <b>Voie 1 E</b>", "maneuver": "turn-left", "polyline": {"points": "wv}sGrm_vL_@A"}, "start_location": {"lat": 45.3772449, "lng": -71.9280991}, "travel_mode": "WALKING"}, {"distance": {"text": "27 m", "value": 27}, "duration": {"text": "1 min", "value": 26}, "end_location": {"lat": 45.3774016, "lng": -71.92774229999999}, "html_instructions": "Turn <b>right</b> onto <b>Voie 1 E</b>", "maneuver": "turn-right", "polyline": {"points": "ww}sGpm_vL?eA"}, "start_location": {"lat": 45.3774044, "lng": -71.9280907}, "travel_mode": "WALKING"}, {"distance": {"text": "0.2 km", "value": 167}, "duration": {"text": "2 mins", "value": 112}, "end_location": {"lat": 45.3776218, "lng": -71.9295494}, "html_instructions": "Make a <b>U-turn</b>", "maneuver": "uturn-left", "polyline": {"points": "ww}sGjk_vLm@??jB?r@?|@?r@?T@\\?b@"}, "start_location": {"lat": 45.3774016, "lng": -71.92774229999999}, "travel_mode": "WALKING"}, {"distance": {"text": "0.1 km", "value": 99}, "duration": {"text": "1 min", "value": 69}, "end_location": {"lat": 45.3784606, "lng": -71.9296306}, "html_instructions": "Turn <b>right</b>", "maneuver": "turn-right", "polyline": {"points": "cy}sGtv_vLc@?e@?]@c@?M?M??L"}, "start_location": {"lat": 45.3776218, "lng": -71.9295494}, "travel_mode": "WALKING"}, {"distance": {"text": "60 m", "value": 60}, "duration": {"text": "1 min", "value": 42}, "end_location": {"lat": 45.378944, "lng": -71.92950499999999}, "html_instructions": "Turn <b>right</b><div style=\"font-size:0.9em\">Destination will be on the left</div>", "maneuver": "turn-right", "polyline": {"points": "k~}sGdw_vLA?I?QMGDOLE@CAGAEAEGAE?ACI?AE?"}, "start_location": {"lat": 45.3784606, "lng": -71.9296306}, "travel_mode": "WALKING"}], "travel_mode": "WALKING"}, {"distance": {"text": "9.3 km", "value": 9279}, "duration": {"text": "29 mins", "value": 1740}, "end_location": {"lat": 45.407682, "lng": -71.88308599999999}, "html_instructions": "Bus towards Station du C\u00e9gep", "polyline": {"points": "ka~sGjv_vLFCHVHHNALCJKHOPu@T@rCB?dAAlBA|JAd@CRETKTOTYP[FQ?[A_AHeCf@_A?y@BC?_BBs@BQAOEKCCAQMKKGGCEMQCGAEAECIAEAGESCWA[KoCCiAAi@A[A]AOC_@Io@U}A_AwDm@wBKYSo@c@kASm@Yo@]q@]o@g@s@m@}@[m@OQUQUUMMc@e@i@c@iAy@m@a@SI[OqAg@iCu@YMWIWOOUK[E[CQ@}C@{B@OBmHBmE@iA?w@EwB?s@?I?gA?eC@iBAaB@gB@iHBoA@sC@[?C?E@Y?UAIBs@@IDeA?_@EeAG_@Qy@AAK_@oAaCc@s@uB}Dg@eAgA}B}@cC]o@IMWi@e@w@OU@oB?}BAwD@eBEaH?S?AIoP?]AYCeE@_ACuCAeAtCCPAT@R?TBR?VBRFH@NDd@JVJZHN@J?B?l@A@?@?|AIb@?NBd@WGKEOMi@ACCOC[Cq@?]C{@EkB?IIgEKoEEeBCeB|DQdLi@XAWcKAYQ}J?e@oJb@wFVqH\\oI^Q@^fQ@b@oF\\_@BI@I?oERqBJc@?i@CuAKMAm@K_AKM?ODg@P_EdC_@VgIlFe@ZwInFQJ}@wDk@mB]_A?CuH}Q`@QVMb@S?B@F?B@B@B@@@B@@@@@@@@B@@?h@@@A@?@A@A?ABC?A@A?A@C?A?A@EAE?A?CAC?CK]cAf@c@Ry@^oA}CI[m@uAc@eAKSQCYm@{D{JaAeCUYKMYS_Aa@wBiAe@Qs@_@EOCGCEGIo@kAIKIKGOWi@KLW^_@d@]^ODsBRAS"}, "start_location": {"lat": 45.378944, "lng": -71.92950499999999}, "transit_details": {"arrival_stop": {"location": {"lat": 45.407682, "lng": -71.88308599999999}, "name": "du C\u00e9gep / Mont-Plaisant"}, "arrival_time": {"text": "2:31pm", "time_zone": "America/Toronto", "value": 1522780260}, "departure_stop": {"location": {"lat": 45.378944, "lng": -71.92950499999999}, "name": "Universit\u00e9 de Sherbrooke - Quai B"}, "departure_time": {"text": "2:02pm", "time_zone": "America/Toronto", "value": 1522778520}, "headsign": "Station du C\u00e9gep", "line": {"agencies": [{"name": "Soci\u00e9t\u00e9 de Transport de Sherbrooke", "phone": "1 (819) 564-2687", "url": "http://www.sts.qc.ca/"}], "color": "#b8027e", "name": "Universit\u00e9 de Sherbrooke <> Station du C\u00e9gep", "short_name": "14", "text_color": "#ffffff", "vehicle": {"icon": "//maps.gstatic.com/mapfiles/transit/iw2/6/bus2.png", "name": "Bus", "type": "BUS"}}, "num_stops": 36}, "travel_mode": "TRANSIT"}, {"distance": {"text": "15 m", "value": 15}, "duration": {"text": "1 min", "value": 16}, "end_location": {"lat": 45.407803, "lng": -71.88327199999999}, "html_instructions": "Walk to du C\u00e9gep / Mont-Plaisant", "polyline": {"points": "_uctGhtvuL@TO@KB@F"}, "start_location": {"lat": 45.407682, "lng": -71.88308599999999}, "steps": [{"distance": {"text": "15 m", "value": 15}, "duration": {"text": "1 min", "value": 16}, "end_location": {"lat": 45.407803, "lng": -71.88327199999999}, "html_instructions": "Head <b>north</b> on <b>Rue du C\u00e9gep</b> toward <b>Rue Mont-Plaisant</b><div style=\"font-size:0.9em\">Destination will be on the left</div>", "polyline": {"points": "_uctGhtvuL@TO@KB@F"}, "start_location": {"lat": 45.407682, "lng": -71.88308599999999}, "travel_mode": "WALKING"}], "travel_mode": "WALKING"}, {"distance": {"text": "4.5 km", "value": 4527}, "duration": {"text": "9 mins", "value": 520}, "end_location": {"lat": 45.405935, "lng": -71.849701}, "html_instructions": "Bus towards Chalumeau / Galvin", "polyline": {"points": "wuctGluvuLAKnCWNE\\_@^e@V_@JMyAqCCEMCsBiD[s@Wc@AEGUG_@AO~BCfCB`F?hI?NALEd@WXUbAo@`JaGt@g@d@WZWp@W|A[XIdBk@`Be@v@WXGn@KD?PAV?u@{D[kBMq@G]E[e@mEc@gDIeAA[@[DYNw@DSBOD]@QE}@sAgRGw@o@h@UTQVWb@[n@e@x@q@j@GDWJUJG@E@IBWBM@K?UBG_LEyL?k@SG{KLcADY@CaCAyBBu@BYB]Jo@Nq@XcABKHYRw@BQ@G@EF_A?O?G@G?GA_@AWC[K_A]cC]_B_@yAWcAIYk@yBkByGw@eCISKQKM]YqAcAKMU]Og@AGAKCW?mE@iC?c@HkIB}@@y@A_BF?"}, "start_location": {"lat": 45.407803, "lng": -71.88327199999999}, "transit_details": {"arrival_stop": {"location": {"lat": 45.405935, "lng": -71.849701}, "name": "Parc Desranleau"}, "arrival_time": {"text": "2:44pm", "time_zone": "America/Toronto", "value": 1522781062}, "departure_stop": {"location": {"lat": 45.407803, "lng": -71.88327199999999}, "name": "du C\u00e9gep / Mont-Plaisant"}, "departure_time": {"text": "2:35pm", "time_zone": "America/Toronto", "value": 1522780542}, "headsign": "Chalumeau / Galvin", "line": {"agencies": [{"name": "Soci\u00e9t\u00e9 de Transport de Sherbrooke", "phone": "1 (819) 564-2687", "url": "http://www.sts.qc.ca/"}], "color": "#9e9e9e", "name": "Carrefour de l'Estrie <> Du Chalumeau", "short_name": "4", "text_color": "#ffffff", "vehicle": {"icon": "//maps.gstatic.com/mapfiles/transit/iw2/6/bus2.png", "name": "Bus", "type": "BUS"}}, "num_stops": 19}, "travel_mode": "TRANSIT"}, {"distance": {"text": "0.2 km", "value": 183}, "duration": {"text": "2 mins", "value": 138}, "end_location": {"lat": 45.4072373, "lng": -71.84915710000001}, "html_instructions": "Walk to Parc Desranleau, Sherbrooke, QC J1G 5K4, Canada", "polyline": {"points": "cjctGrcpuLK@Ai@AqAwDL{@?"}, "start_location": {"lat": 45.405935, "lng": -71.849701}, "steps": [{"distance": {"text": "48 m", "value": 48}, "duration": {"text": "1 min", "value": 34}, "end_location": {"lat": 45.4060224, "lng": -71.8490881}, "html_instructions": "Head <b>east</b> on <b>Chemin Galvin</b> toward <b>Rue Ovila-Beaudoin</b>", "polyline": {"points": "cjctGrcpuLK@Ai@AqA"}, "start_location": {"lat": 45.405935, "lng": -71.849701}, "travel_mode": "WALKING"}, {"distance": {"text": "0.1 km", "value": 135}, "duration": {"text": "2 mins", "value": 104}, "end_location": {"lat": 45.4072373, "lng": -71.84915710000001}, "html_instructions": "Turn <b>left</b> onto <b>Rue Ovila-Beaudoin</b><div style=\"font-size:0.9em\">Destination will be on the left</div>", "maneuver": "turn-left", "polyline": {"points": "sjctGx_puLwDL{@?"}, "start_location": {"lat": 45.4060224, "lng": -71.8490881}, "travel_mode": "WALKING"}], "travel_mode": "WALKING"}], "traffic_speed_entry": [], "via_waypoint": []}], "overview_polyline": {"points": "w|}sGr~~uL?x@M??t@?tLV?vAf@^?n@{@?i@L??G_@A?eAm@??~C?pB@r@?b@c@?cA@q@?M??LK?QMGDUNKCKIESE?FCHVHH\\ET[Pu@T@rCB?dACjNEx@ETKTOTYP[FQ?{AFeCf@_A?}@BsCFa@GOE]Y]g@I[G[Es@S_HCm@MoAU}A_AwDy@qCw@{Bm@}A{@aBuAqBk@_Ak@g@q@s@sB}AaAk@mBw@cDcAo@YOUK[Im@HwQDwGEoD?kGB}QFcG?_AJcDEeAYyAMa@sBuD}CcGgA}B}@cCg@}@}@aBOU@oBAuHC}KImQE_FAuEAeAtCCf@?h@Bj@B\\Ht@Pr@TlA?dCINBd@WM[Om@Gk@MwF[gOCeB|DQ~Lk@k@aYif@xBQ@^fQ@b@oF\\i@DyERuCJ_CO{BY]Dg@P_EdCgJdG}JjGQJ}@wDiAmDuHaRx@_@b@S?B@JFLFFp@@JOBMCOKa@gBz@y@^oA}Cw@qBo@yAQCYm@}FaOa@g@YS_Aa@}C{As@_@EOGMkAmB_@y@c@l@}@dAcCXAS@T[D@FAK~C]|@eAb@m@}AwCMCsBiDs@wAI[Io@~BCfCBjP?\\G~@m@dLqHzA_AZWp@WvBe@fEqApA_@t@Kh@AqAgHUoAk@iFm@mF?w@^uBFo@yAeTGw@o@h@g@l@s@rAe@x@q@j@_@P]Lu@Ja@BMyY?k@SG{KLcADY@CaC@oDFw@ZaBz@aDN_B@g@Cw@O{A]cC]_Bw@}Cu@sCcD_LUe@i@g@}AqAU]Og@CSCeF@mDLiK?yCF?K@C{BwDL{@?"}, "summary": "", "warnings": ["Walking directions are in beta.    Use caution \u2013 This route may be missing sidewalks or pedestrian paths."], "waypoint_order": []}], "status": "OK"}