{"geocoded_waypoints": [{"geocoder_status": "OK", "place_id": "ChIJczwxWwWzt0wRzb4KUd8rLG0", "types": ["bus_station", "establishment", "point_of_interest", "transit_station"]}, {"geocoder_status": "OK", "place_id": "ChIJofAP7qyzt0wRv-BUHrL5q-Q", "types": ["bus_station", "establishment", "point_of_interest", "transit_station"]}], "routes": [{"bounds": {"northeast": {"lat": 45.41561, "lng": -71.87001479999999}, "southwest": {"lat": 45.400363, "lng": -71.88919}}, "copyrights": "Map data \u00a92018 Google", "fare": {"currency": "CAD", "text": "CA$3.30", "value": 3.3}, "legs": [{"arrival_time": {"text": "3:28pm", "time_zone": "America/Toronto", "value": 1523215717}, "departure_time": {"text": "3:12pm", "time_zone": "America/Toronto", "value": 1523214771}, "distance": {"text": "4.1 km", "value": 4103}, "duration": {"text": "16 mins", "value": 946}, "end_address": "Sherbrooke, QC J1E 2Y2, Canada", "end_location": {"lat": 45.4129528, "lng": -71.8701923}, "start_address": "80 Rue du D\u00e9p\u00f4t, Sherbrooke, QC J1H 5G1, Canada", "start_location": {"lat": 45.400363, "lng": -71.88848039999999}, "steps": [{"distance": {"text": "93 m", "value": 93}, "duration": {"text": "1 min", "value": 69}, "end_location": {"lat": 45.401253, "lng": -71.888683}, "html_instructions": "Walk to Station du D\u00e9p\u00f4t - Quai F", "polyline": {"points": "ggbtG~uwuL{@\\GBULQFC@o@DQW"}, "start_location": {"lat": 45.400363, "lng": -71.88848039999999}, "steps": [{"distance": {"text": "40 m", "value": 40}, "duration": {"text": "1 min", "value": 30}, "end_location": {"lat": 45.40070170000001, "lng": -71.8886495}, "html_instructions": "Head <b>north</b> on <b>Rue du D\u00e9p\u00f4t</b>", "polyline": {"points": "ggbtG~uwuL{@\\GB"}, "start_location": {"lat": 45.400363, "lng": -71.88848039999999}, "travel_mode": "WALKING"}, {"distance": {"text": "53 m", "value": 53}, "duration": {"text": "1 min", "value": 39}, "end_location": {"lat": 45.401253, "lng": -71.888683}, "html_instructions": "Slight <b>left</b> to stay on <b>Rue du D\u00e9p\u00f4t</b>", "maneuver": "turn-slight-left", "polyline": {"points": "kibtG`wwuLULQFC@o@DQW"}, "start_location": {"lat": 45.40070170000001, "lng": -71.8886495}, "travel_mode": "WALKING"}], "travel_mode": "WALKING"}, {"distance": {"text": "3.8 km", "value": 3841}, "duration": {"text": "12 mins", "value": 720}, "end_location": {"lat": 45.41184699999999, "lng": -71.87109699999999}, "html_instructions": "Bus towards 13e Avenue / 24-Juin", "polyline": {"points": "ylbtGfwwuLF^]Pc@Ry@^oA}CI[m@uAc@eAKSQCYm@{D{JaAeCUYKMYS_Aa@wBiAe@Qs@_@EOCGCEGIo@kAIKIKGOWi@KLW^_@d@]^ODsBRgJz@_AkEAACIICEAGDqDrCy@\\{Ab@aA\\FV^`E?JBJDHHDF@F?HCLIDKBM?M[sCAEMqAaA\\aATOFGHMLWp@IFe@z@q@~@Y`@Y\\oByC[SIK}AeCOa@iCgEO_@ESI_@My@G{@Gi@A}@@{@|@i@nAy@lA_AVOb@Y^S?AJIRItAc@_AsHG]MoB]_DACCYdBEnFC|ICx@AeAiEcAoE_@{A]wAAG_AuDG[k@cCHE"}, "start_location": {"lat": 45.401253, "lng": -71.888683}, "transit_details": {"arrival_stop": {"location": {"lat": 45.41184699999999, "lng": -71.87109699999999}, "name": "Papineau / 12e av. Nord"}, "arrival_time": {"text": "3:26pm", "time_zone": "America/Toronto", "value": 1523215560}, "departure_stop": {"location": {"lat": 45.401253, "lng": -71.888683}, "name": "Station du D\u00e9p\u00f4t - Quai F"}, "departure_time": {"text": "3:14pm", "time_zone": "America/Toronto", "value": 1523214840}, "headsign": "13e Avenue / 24-Juin", "line": {"agencies": [{"name": "Soci\u00e9t\u00e9 de Transport de Sherbrooke", "phone": "1 (819) 564-2687", "url": "http://www.sts.qc.ca/"}], "color": "#0277bd", "name": "Carrefour de l'Estrie <> 13e avenue - du 24-Juin", "short_name": "3", "text_color": "#ffffff", "vehicle": {"icon": "//maps.gstatic.com/mapfiles/transit/iw2/6/bus2.png", "name": "Bus", "type": "BUS"}}, "num_stops": 15}, "travel_mode": "TRANSIT"}, {"distance": {"text": "0.2 km", "value": 169}, "duration": {"text": "3 mins", "value": 172}, "end_location": {"lat": 45.4129528, "lng": -71.8701923}, "html_instructions": "Walk to Sherbrooke, QC J1E 2Y2, Canada", "polyline": {"points": "aodtGjituLKFEQg@gBi@gBwBb@"}, "start_location": {"lat": 45.41184699999999, "lng": -71.87109699999999}, "steps": [{"distance": {"text": "0.1 km", "value": 101}, "duration": {"text": "2 mins", "value": 107}, "end_location": {"lat": 45.4123505, "lng": -71.87001479999999}, "html_instructions": "Head <b>northeast</b> on <b>Rue Papineau</b> toward <b>12e Avenue N</b>/<b>QC-216 O</b>", "polyline": {"points": "aodtGjituLKFEQg@gBi@gB"}, "start_location": {"lat": 45.41184699999999, "lng": -71.87109699999999}, "travel_mode": "WALKING"}, {"distance": {"text": "68 m", "value": 68}, "duration": {"text": "1 min", "value": 65}, "end_location": {"lat": 45.4129528, "lng": -71.8701923}, "html_instructions": "Turn <b>left</b> onto <b>13e Avenue N</b>/<b>QC-216 E</b><div style=\"font-size:0.9em\">Destination will be on the right</div>", "maneuver": "turn-left", "polyline": {"points": "erdtGpbtuLwBb@"}, "start_location": {"lat": 45.4123505, "lng": -71.87001479999999}, "travel_mode": "WALKING"}], "travel_mode": "WALKING"}], "traffic_speed_entry": [], "via_waypoint": []}], "overview_polyline": {"points": "ggbtG~uwuLkBv@s@FQWF^aAd@y@^oA}Cw@qBo@yAQCYm@}FaOa@g@YS_Aa@}C{As@_@EOGMw@uAs@qAc@l@}@dAcCXgJz@_AkEEKOEyDxCy@\\{Ab@aA\\FV^lEHTPFPCLIDKB[[sCOwAaA\\aATWPMLWp@IFe@z@kA`BY\\oByC[SIK}AeCOa@iCgEO_@Os@UuBGi@A}@@{@|@i@|CyBz@i@~@i@tAc@_AsHUmCc@}DtII|ICx@AeAiEcBkHgBqHk@cCHEKFEQqAoEwBb@"}, "summary": "", "warnings": ["Walking directions are in beta.    Use caution \u2013 This route may be missing sidewalks or pedestrian paths."], "waypoint_order": []}], "status": "OK"}