{"geocoded_waypoints": [{"geocoder_status": "OK", "place_id": "ChIJQwOsN_-0t0wRotSuUmiKUN8", "types": ["establishment", "point_of_interest"]}, {"geocoder_status": "OK", "partial_match": true, "place_id": "ChIJhZFgMMqzt0wRLBglXHio-zY", "types": ["street_address"]}], "routes": [{"bounds": {"northeast": {"lat": 45.4267563, "lng": -71.86415749999999}, "southwest": {"lat": 45.40227, "lng": -71.9648201}}, "copyrights": "Map data \u00a92018 Google", "fare": {"currency": "CAD", "text": "CA$3.30", "value": 3.3}, "legs": [{"arrival_time": {"text": "3:15pm", "time_zone": "America/Toronto", "value": 1522782938}, "departure_time": {"text": "2:11pm", "time_zone": "America/Toronto", "value": 1522779105}, "distance": {"text": "15.1 km", "value": 15135}, "duration": {"text": "1 hour 4 mins", "value": 3833}, "end_address": "1225 Rue Despr\u00e9s, Sherbrooke, QC J1E 4A8, Canada", "end_location": {"lat": 45.4267563, "lng": -71.86415749999999}, "start_address": "1600 Boulevard du Plateau-Saint-Joseph, Sherbrooke, QC J1L 0C8, Canada", "start_location": {"lat": 45.4225888, "lng": -71.9648201}, "steps": [{"distance": {"text": "0.3 km", "value": 278}, "duration": {"text": "3 mins", "value": 209}, "end_location": {"lat": 45.42458999999999, "lng": -71.96291}, "html_instructions": "Walk to boul. du P. Saint-Joseph / boul. de Mgr-Fortier", "polyline": {"points": "erftGbsfvLqB{BoAqAUUWO[Qc@]w@_@k@UDc@A?"}, "start_location": {"lat": 45.4225888, "lng": -71.9648201}, "steps": [{"distance": {"text": "0.3 km", "value": 264}, "duration": {"text": "3 mins", "value": 195}, "end_location": {"lat": 45.4246059, "lng": -71.9630858}, "html_instructions": "Head <b>northeast</b> on <b>Boulevard du Plateau-Saint-Joseph</b>", "polyline": {"points": "erftGbsfvLqB{BoAqAUUWO[Qc@]w@_@k@U"}, "start_location": {"lat": 45.4225888, "lng": -71.9648201}, "travel_mode": "WALKING"}, {"distance": {"text": "14 m", "value": 14}, "duration": {"text": "1 min", "value": 14}, "end_location": {"lat": 45.42458999999999, "lng": -71.96291}, "html_instructions": "Turn <b>right</b>", "maneuver": "turn-right", "polyline": {"points": "y~ftGhhfvLDc@A?"}, "start_location": {"lat": 45.4246059, "lng": -71.9630858}, "travel_mode": "WALKING"}], "travel_mode": "WALKING"}, {"distance": {"text": "6.0 km", "value": 6036}, "duration": {"text": "13 mins", "value": 780}, "end_location": {"lat": 45.40227, "lng": -71.952806}, "html_instructions": "Bus towards Universit\u00e9 Bishop's", "polyline": {"points": "u~ftGdgfvLMCF}@RkCHyCCaBAqAo@cNWyKMeFUy]A_MhACjOFlVHv@Gr@M`@Mf@Ud@Wt@k@p@w@h@w@zDsH~@{AtA}AtA_AvAg@FATGFr@JlBBVChE?VjF?^?@CBBzCA`NAhL?hCEb@AuAjGqAzEc@dBk@`CUv@w@jCeAjCOb@KXkAqAiAmA_@v@O\\KP[\\KNOPMRQZKNa@hAWt@CTMf@EVc@hBQf@CDIRKNMNMJOJ]HC?wB??pC@jF@~A@v@?p@tA@~ACl@A|KET@R?@?J?bAI`AU^Of@_@jAq@|B}AvCoBf@e@RS^q@L[^uAJSJQLOLKXODCVEFAL?xA?LAjCGBhAjACCsBH?"}, "start_location": {"lat": 45.42458999999999, "lng": -71.96291}, "transit_details": {"arrival_stop": {"location": {"lat": 45.40227, "lng": -71.952806}, "name": "Carrefour de l'Estrie - Quai A"}, "arrival_time": {"text": "2:28pm", "time_zone": "America/Toronto", "value": 1522780080}, "departure_stop": {"location": {"lat": 45.42458999999999, "lng": -71.96291}, "name": "boul. du P. Saint-Joseph / boul. de Mgr-Fortier"}, "departure_time": {"text": "2:15pm", "time_zone": "America/Toronto", "value": 1522779300}, "headsign": "Universit\u00e9 Bishop's", "line": {"agencies": [{"name": "Soci\u00e9t\u00e9 de Transport de Sherbrooke", "phone": "1 (819) 564-2687", "url": "http://www.sts.qc.ca/"}], "color": "#ffea00", "name": "Universit\u00e9 Bishop's <> Plateau Saint-Joseph", "short_name": "11", "text_color": "#000000", "vehicle": {"icon": "//maps.gstatic.com/mapfiles/transit/iw2/6/bus2.png", "name": "Bus", "type": "BUS"}}, "num_stops": 18}, "travel_mode": "TRANSIT"}, {"distance": {"text": "1 m", "value": 0}, "duration": {"text": "1 min", "value": 0}, "end_location": {"lat": 45.40227, "lng": -71.952806}, "html_instructions": "Walk to Carrefour de l'Estrie - Quai A", "polyline": {"points": "esbtG`hdvL"}, "start_location": {"lat": 45.40227, "lng": -71.952806}, "steps": [{"distance": {"text": "1 m", "value": 0}, "duration": {"text": "1 min", "value": 0}, "end_location": {"lat": 45.40227, "lng": -71.952806}, "polyline": {"points": "esbtG`hdvL"}, "start_location": {"lat": 45.40227, "lng": -71.952806}, "travel_mode": "WALKING"}], "travel_mode": "WALKING"}, {"distance": {"text": "5.8 km", "value": 5833}, "duration": {"text": "15 mins", "value": 899}, "end_location": {"lat": 45.412958, "lng": -71.884905}, "html_instructions": "Bus towards Station du C\u00e9gep", "polyline": {"points": "esbtG`hdvLI?CgAkAFc@eTAcAoBDGcBMuISwNCwBAsB?q@A]?EA_@?AAm@CwB?cKCaZ?YDyRH}_@BkPDuQ@i@EkE?_D@[?k@?wAGY?GHwYBqG?o@@eFF_PD{R@iDFcFAYASCQEWEYWy@EIcAeCqDcJkGqO_A_CKSOOMKYOGGGIIOSWCEQUe@q@Wc@MSS_@a@_AY{@K[yEuOYiAe@wAKW[w@_@o@_BgCCUwBgDOWsBaDwA}B_@m@}DeGj@w@DKDD"}, "start_location": {"lat": 45.40227, "lng": -71.952806}, "transit_details": {"arrival_stop": {"location": {"lat": 45.412958, "lng": -71.884905}, "name": "Plateau Sylvie-Daigle"}, "arrival_time": {"text": "2:56pm", "time_zone": "America/Toronto", "value": 1522781819}, "departure_stop": {"location": {"lat": 45.40227, "lng": -71.952806}, "name": "Carrefour de l'Estrie - Quai A"}, "departure_time": {"text": "2:42pm", "time_zone": "America/Toronto", "value": 1522780920}, "headsign": "Station du C\u00e9gep", "line": {"agencies": [{"name": "Soci\u00e9t\u00e9 de Transport de Sherbrooke", "phone": "1 (819) 564-2687", "url": "http://www.sts.qc.ca/"}], "color": "#1a237e", "name": "Station du C\u00e9gep <> Place Dussault", "short_name": "17", "text_color": "#ffffff", "vehicle": {"icon": "//maps.gstatic.com/mapfiles/transit/iw2/6/bus2.png", "name": "Bus", "type": "BUS"}}, "num_stops": 21}, "travel_mode": "TRANSIT"}, {"distance": {"text": "2 m", "value": 2}, "duration": {"text": "1 min", "value": 1}, "end_location": {"lat": 45.413062, "lng": -71.884778}, "html_instructions": "Walk to Plateau Sylvie-Daigle", "polyline": {"points": "_vdtGr_wuLGKA@IM"}, "start_location": {"lat": 45.412958, "lng": -71.884905}, "steps": [{"distance": {"text": "2 m", "value": 2}, "duration": {"text": "1 min", "value": 1}, "end_location": {"lat": 45.413062, "lng": -71.884778}, "html_instructions": "Head <b>northwest</b> toward <b>Rue Terrill</b>", "polyline": {"points": "_vdtGr_wuLGKA@IM"}, "start_location": {"lat": 45.412958, "lng": -71.884905}, "travel_mode": "WALKING"}], "travel_mode": "WALKING"}, {"distance": {"text": "2.3 km", "value": 2251}, "duration": {"text": "4 mins", "value": 253}, "end_location": {"lat": 45.424938, "lng": -71.87175300000001}, "html_instructions": "Bus towards CHUS (Urgence)", "polyline": {"points": "svdtGz~vuLBDY`@Y\\oByC[SIK}AeCOa@iCgEO_@Os@SLKJc@Vg@Ze@^C@[VGKGOGe@?c@qGHwB?u@@qA@oLJaCHS@EiYCsR@y@Ac@@e@BUBWFk@@]@Y?oA?g@GAcAIWCyB]wBc@aAW_A_@uAq@k@_@DU"}, "start_location": {"lat": 45.413062, "lng": -71.884778}, "transit_details": {"arrival_stop": {"location": {"lat": 45.424938, "lng": -71.87175300000001}, "name": "12e av. Nord / de Montpellier"}, "arrival_time": {"text": "3:06pm", "time_zone": "America/Toronto", "value": 1522782392}, "departure_stop": {"location": {"lat": 45.413062, "lng": -71.884778}, "name": "Plateau Sylvie-Daigle"}, "departure_time": {"text": "3:02pm", "time_zone": "America/Toronto", "value": 1522782139}, "headsign": "CHUS (Urgence)", "line": {"agencies": [{"name": "Soci\u00e9t\u00e9 de Transport de Sherbrooke", "phone": "1 (819) 564-2687", "url": "http://www.sts.qc.ca/"}], "color": "#d50000", "name": "Andr\u00e9 / Hall\u00e9e <> CHUS - Fleurimont", "short_name": "7", "text_color": "#ffffff", "vehicle": {"icon": "//maps.gstatic.com/mapfiles/transit/iw2/6/bus2.png", "name": "Bus", "type": "BUS"}}, "num_stops": 8}, "travel_mode": "TRANSIT"}, {"distance": {"text": "0.7 km", "value": 735}, "duration": {"text": "8 mins", "value": 504}, "end_location": {"lat": 45.4267563, "lng": -71.86415749999999}, "html_instructions": "Walk to 1225 Rue Despr\u00e9s, Sherbrooke, QC J1E 4A8, Canada", "polyline": {"points": "{`gtGlmtuLGVJHNJFDJFj@ZDS?A?C?AAEMu@cDuQIe@]gBmDwPIa@o@gDAG"}, "start_location": {"lat": 45.424938, "lng": -71.87175300000001}, "steps": [{"distance": {"text": "58 m", "value": 58}, "duration": {"text": "1 min", "value": 42}, "end_location": {"lat": 45.42451699999999, "lng": -71.8721855}, "html_instructions": "Head <b>southwest</b> on <b>13e Avenue N</b>/<b>QC-216 E</b> toward <b>Rue Despr\u00e9s</b>", "polyline": {"points": "{`gtGlmtuLGVJHNJFDJFj@Z"}, "start_location": {"lat": 45.424938, "lng": -71.87175300000001}, "travel_mode": "WALKING"}, {"distance": {"text": "0.7 km", "value": 677}, "duration": {"text": "8 mins", "value": 462}, "end_location": {"lat": 45.4267563, "lng": -71.86415749999999}, "html_instructions": "Turn <b>left</b> onto <b>Rue Despr\u00e9s</b><div style=\"font-size:0.9em\">Destination will be on the left</div>", "maneuver": "turn-left", "polyline": {"points": "g~ftGdptuLDS?A?C?AAEMu@cDuQIe@]gBmDwPIa@o@gDAG"}, "start_location": {"lat": 45.42451699999999, "lng": -71.8721855}, "travel_mode": "WALKING"}], "travel_mode": "WALKING"}], "traffic_speed_entry": [], "via_waypoint": []}], "overview_polyline": {"points": "erftGbsfvLaEmEm@e@[Qc@]cBu@Bc@MCF}@RkCHyCEsDo@cNWyKMeFUy]A_MhACxf@Pv@Gr@MhAc@zAcAzAoBzDsH~@{AtA}AtA_A~Ai@TGFr@NdCC`FpG?|RChL?hCEb@AuAjGuB`IaAxDw@jCeAjC[|@uC_Do@tAg@n@[`@_@n@KNa@hA[jAS~@u@pCMXY^]Va@HwB??pCBjI@hBtA@~ACjMGh@@L?bAI`AU^Of@_@hEoCvCoBf@e@RS^q@l@qBVe@Z[^S^GfB?xCIBhAjACCsBH?I?CgAkAFc@eTAcAoBDUyLWoRCiEGgECef@DsSTieAEkJ@gA?wAGYH_ZLga@FeXFcFAYEe@Kq@]cAuFiNkIqS[c@g@[OQs@cA_BiC{@{BeFqPYiAe@wAg@oA_CwDCUwBgDcCyDwBkD}DeGj@w@DKDDGKA@IMBDs@~@oByC[SgBqCOa@iCgEO_@Os@_@XkAr@i@`@[VGKOu@?c@qGHmD@qA@oLJaCHS@EiYAmT?iAFm@HiA@iB?g@GA{AMqFaAaAW_A_@aCqADUGVZTRLj@ZDS?EsDsS_FgVq@oD"}, "summary": "", "warnings": ["Walking directions are in beta.    Use caution \u2013 This route may be missing sidewalks or pedestrian paths."], "waypoint_order": []}], "status": "OK"}