{"geocoded_waypoints": [{"geocoder_status": "OK", "place_id": "ChIJ_4Bie1Kzt0wRIQkO9HZY8Zo", "types": ["establishment", "point_of_interest"]}, {"geocoder_status": "OK", "partial_match": true, "place_id": "ChIJBUnsLhGzt0wRgJewKc9fr84", "types": ["establishment", "point_of_interest", "shopping_mall"]}], "routes": [{"bounds": {"northeast": {"lat": 45.3962605, "lng": -71.8947781}, "southwest": {"lat": 45.3796395, "lng": -71.9280435}}, "copyrights": "Map data \u00a92018 Google", "fare": {"currency": "CAD", "text": "CA$3.30", "value": 3.3}, "legs": [{"arrival_time": {"text": "2:00pm", "time_zone": "America/Toronto", "value": 1522778437}, "departure_time": {"text": "1:45pm", "time_zone": "America/Toronto", "value": 1522777542}, "distance": {"text": "4.0 km", "value": 3972}, "duration": {"text": "15 mins", "value": 895}, "end_address": "340 Rue Belv\u00e9d\u00e8re S, Sherbrooke, QC J1H 4B5, Canada", "end_location": {"lat": 45.3952868, "lng": -71.8947781}, "start_address": "2500 Bd de l'Universit\u00e9, Sherbrooke, QC J1K 2R1, Canada", "start_location": {"lat": 45.3798719, "lng": -71.92545539999999}, "steps": [{"distance": {"text": "0.5 km", "value": 467}, "duration": {"text": "5 mins", "value": 310}, "end_location": {"lat": 45.382214, "lng": -71.927936}, "html_instructions": "Walk to boul. de l'Universit\u00e9 / Cabana", "polyline": {"points": "eg~sGb}~uLVA@BBF@@CHL`ABLEJShABLEFEJCN?N?PAz@M@{AAA`@iB?qB?mAA?nAu@fAMS"}, "start_location": {"lat": 45.3798719, "lng": -71.92545539999999}, "steps": [{"distance": {"text": "14 m", "value": 14}, "duration": {"text": "1 min", "value": 12}, "end_location": {"lat": 45.3797465, "lng": -71.9254467}, "html_instructions": "Head <b>south</b>", "polyline": {"points": "eg~sGb}~uLVA"}, "start_location": {"lat": 45.3798719, "lng": -71.92545539999999}, "travel_mode": "WALKING"}, {"distance": {"text": "45 m", "value": 45}, "duration": {"text": "1 min", "value": 29}, "end_location": {"lat": 45.3796395, "lng": -71.9259694}, "html_instructions": "Turn <b>right</b> toward <b>Voie 7</b>", "maneuver": "turn-right", "polyline": {"points": "mf~sG`}~uL@BBF@@CHL`ABL"}, "start_location": {"lat": 45.3797465, "lng": -71.9254467}, "travel_mode": "WALKING"}, {"distance": {"text": "0.1 km", "value": 97}, "duration": {"text": "1 min", "value": 65}, "end_location": {"lat": 45.379836, "lng": -71.92712209999999}, "html_instructions": "Turn <b>right</b> onto <b>Voie 7</b>", "maneuver": "turn-right", "polyline": {"points": "we~sGh`_vLEJShABLEFEJCN?N?PAz@"}, "start_location": {"lat": 45.3796395, "lng": -71.9259694}, "travel_mode": "WALKING"}, {"distance": {"text": "60 m", "value": 60}, "duration": {"text": "1 min", "value": 38}, "end_location": {"lat": 45.380373, "lng": -71.92712329999999}, "html_instructions": "Turn <b>right</b> toward <b>Voie 5</b>", "maneuver": "turn-right", "polyline": {"points": "_g~sGng_vLM@{AA"}, "start_location": {"lat": 45.379836, "lng": -71.92712209999999}, "travel_mode": "WALKING"}, {"distance": {"text": "13 m", "value": 13}, "duration": {"text": "1 min", "value": 10}, "end_location": {"lat": 45.3803776, "lng": -71.92729109999999}, "html_instructions": "Turn <b>left</b> toward <b>Voie 5</b>", "maneuver": "turn-left", "polyline": {"points": "ij~sGng_vLA`@"}, "start_location": {"lat": 45.380373, "lng": -71.92712329999999}, "travel_mode": "WALKING"}, {"distance": {"text": "0.2 km", "value": 166}, "duration": {"text": "2 mins", "value": 109}, "end_location": {"lat": 45.3818663, "lng": -71.927281}, "html_instructions": "Turn <b>right</b> onto <b>Voie 5</b>", "maneuver": "turn-right", "polyline": {"points": "kj~sGph_vLiB?qB?mAA"}, "start_location": {"lat": 45.3803776, "lng": -71.92729109999999}, "travel_mode": "WALKING"}, {"distance": {"text": "31 m", "value": 31}, "duration": {"text": "1 min", "value": 20}, "end_location": {"lat": 45.3818701, "lng": -71.92768339999999}, "html_instructions": "Turn <b>left</b> onto <b>Voie 8</b>", "maneuver": "turn-left", "polyline": {"points": "us~sGnh_vL?nA"}, "start_location": {"lat": 45.3818663, "lng": -71.927281}, "travel_mode": "WALKING"}, {"distance": {"text": "41 m", "value": 41}, "duration": {"text": "1 min", "value": 27}, "end_location": {"lat": 45.382214, "lng": -71.927936}, "html_instructions": "Turn <b>right</b><div style=\"font-size:0.9em\">Destination will be on the right</div>", "maneuver": "turn-right", "polyline": {"points": "us~sG~j_vLu@fAMS"}, "start_location": {"lat": 45.3818701, "lng": -71.92768339999999}, "travel_mode": "WALKING"}], "travel_mode": "WALKING"}, {"distance": {"text": "3.2 km", "value": 3237}, "duration": {"text": "6 mins", "value": 367}, "end_location": {"lat": 45.395865, "lng": -71.895999}, "html_instructions": "Bus towards Chardonnerets / Marika", "polyline": {"points": "yu~sGrl_vLIDSo@c@kASm@Yo@]q@]o@g@s@m@}@[m@OQUQUUMMc@e@i@c@iAy@m@a@SI[OqAg@iCu@YMWIWOOUK[E[CQ@}C@{B@OBmHBmE@iA?w@EwB?s@?I?gA?eC@iBAaB@gB@iHBoA@sC@[?C?E@Y?UAIBs@@IDeA?_@EeAG_@Qy@AAK_@oAaCc@s@uB}Dg@eAgA}B}@cC]o@IMWi@e@w@e@s@CG{@wAq@kAYg@IKO[{@oAIOgAmBOUQ[uCmEo@aAc@}@m@oBCOEQ[iAUgAIo@i@qCAEI]AICMSq@Sm@_@mA]}@e@{A}@oCWA]IsCKkA??O"}, "start_location": {"lat": 45.382214, "lng": -71.927936}, "transit_details": {"arrival_stop": {"location": {"lat": 45.395865, "lng": -71.895999}, "name": "Belv\u00e9d\u00e8re Sud (le Centre Sherbrooke)"}, "arrival_time": {"text": "1:57pm", "time_zone": "America/Toronto", "value": 1522778220}, "departure_stop": {"location": {"lat": 45.382214, "lng": -71.927936}, "name": "boul. de l'Universit\u00e9 / Cabana"}, "departure_time": {"text": "1:50pm", "time_zone": "America/Toronto", "value": 1522777853}, "headsign": "Chardonnerets / Marika", "line": {"agencies": [{"name": "Soci\u00e9t\u00e9 de Transport de Sherbrooke", "phone": "1 (819) 564-2687", "url": "http://www.sts.qc.ca/"}], "color": "#994500", "name": "Universit\u00e9 de Sherbrooke <> des Chardonnerets", "short_name": "9", "text_color": "#ffffff", "vehicle": {"icon": "//maps.gstatic.com/mapfiles/transit/iw2/6/bus2.png", "name": "Bus", "type": "BUS"}}, "num_stops": 12}, "travel_mode": "TRANSIT"}, {"distance": {"text": "0.3 km", "value": 268}, "duration": {"text": "4 mins", "value": 215}, "end_location": {"lat": 45.3952868, "lng": -71.8947781}, "html_instructions": "Walk to 340 Rue Belv\u00e9d\u00e8re S, Sherbrooke, QC J1H 4B5, Canada", "polyline": {"points": "ckatG~dyuLANmAA?VpDJ?]Bc@@e@FkC@q@"}, "start_location": {"lat": 45.395865, "lng": -71.895999}, "steps": [{"distance": {"text": "44 m", "value": 44}, "duration": {"text": "1 min", "value": 26}, "end_location": {"lat": 45.3962577, "lng": -71.8960682}, "html_instructions": "Head <b>north</b> on <b>Rue Belv\u00e9d\u00e8re S</b> toward <b>Rue de la Rand</b>", "polyline": {"points": "ckatG~dyuLANmAA"}, "start_location": {"lat": 45.395865, "lng": -71.895999}, "travel_mode": "WALKING"}, {"distance": {"text": "0.1 km", "value": 109}, "duration": {"text": "2 mins", "value": 99}, "end_location": {"lat": 45.3953715, "lng": -71.8962465}, "html_instructions": "Make a <b>U-turn</b> at <b>Rue de la Rand</b>", "maneuver": "uturn-left", "polyline": {"points": "smatGleyuL?VpDJ"}, "start_location": {"lat": 45.3962577, "lng": -71.8960682}, "travel_mode": "WALKING"}, {"distance": {"text": "0.1 km", "value": 115}, "duration": {"text": "2 mins", "value": 90}, "end_location": {"lat": 45.3952868, "lng": -71.8947781}, "html_instructions": "Turn <b>left</b><div style=\"font-size:0.9em\">Destination will be on the left</div>", "maneuver": "turn-left", "polyline": {"points": "ahatGpfyuL?]Bc@@e@FkC@q@"}, "start_location": {"lat": 45.3953715, "lng": -71.8962465}, "travel_mode": "WALKING"}], "travel_mode": "WALKING"}], "traffic_speed_entry": [], "via_waypoint": []}], "overview_polyline": {"points": "eg~sGb}~uLVA@BDHCHL`ABLEJShABLKRC^AlAiB?A`@iB?_EA?nAu@fAMSIDw@{Bm@}A{@aBuAqBk@_A}A{AsB}AaAk@mBw@cDcAo@YOUK[Im@ByGJuQEmF?yKBqKDcFB_AB}ADeBEeAYyAMa@sBuD}CcGgA}B}@cCg@}@}@aBi@{@qCwEkAkBqA}BgFaIc@}@m@oBIa@[iAUgAs@aEQ{@g@_B}@kCcBkFWA]IsCKkA??OANmAA?VpDJ?]DiAH}D"}, "summary": "", "warnings": ["Walking directions are in beta.    Use caution \u2013 This route may be missing sidewalks or pedestrian paths."], "waypoint_order": []}], "status": "OK"}