{"geocoded_waypoints": [{"geocoder_status": "OK", "place_id": "ChIJo-AIJwyzt0wRX6Df1ZBrfkQ", "types": ["establishment", "museum", "point_of_interest"]}, {"geocoder_status": "OK", "place_id": "ChIJofAP7qyzt0wRv-BUHrL5q-Q", "types": ["bus_station", "establishment", "point_of_interest", "transit_station"]}], "routes": [{"bounds": {"northeast": {"lat": 45.41560399999999, "lng": -71.87001479999999}, "southwest": {"lat": 45.4028433, "lng": -71.8961738}}, "copyrights": "Map data \u00a92018 Google", "fare": {"currency": "CAD", "text": "CA$3.30", "value": 3.3}, "legs": [{"arrival_time": {"text": "2:21pm", "time_zone": "America/Toronto", "value": 1522779697}, "departure_time": {"text": "1:59pm", "time_zone": "America/Toronto", "value": 1522778389}, "distance": {"text": "3.8 km", "value": 3841}, "duration": {"text": "22 mins", "value": 1308}, "end_address": "Sherbrooke, QC J1E 2Y2, Canada", "end_location": {"lat": 45.4129528, "lng": -71.8701923}, "start_address": "225 Rue Frontenac, Sherbrooke, QC J1H 1K1, Canada", "start_location": {"lat": 45.4031946, "lng": -71.8956388}, "steps": [{"distance": {"text": "81 m", "value": 81}, "duration": {"text": "1 min", "value": 81}, "end_location": {"lat": 45.4029, "lng": -71.895851}, "html_instructions": "Walk to Mus\u00e9e de la nature et des sciences de Sherbrooke", "polyline": {"points": "}xbtGvbyuLz@hBHIWg@JM"}, "start_location": {"lat": 45.4031946, "lng": -71.8956388}, "steps": [{"distance": {"text": "54 m", "value": 54}, "duration": {"text": "1 min", "value": 56}, "end_location": {"lat": 45.4028867, "lng": -71.8961738}, "html_instructions": "Head <b>southwest</b> on <b>Rue Frontenac</b> toward <b>Rue Peel</b>", "polyline": {"points": "}xbtGvbyuLz@hB"}, "start_location": {"lat": 45.4031946, "lng": -71.8956388}, "travel_mode": "WALKING"}, {"distance": {"text": "27 m", "value": 27}, "duration": {"text": "1 min", "value": 25}, "end_location": {"lat": 45.4029, "lng": -71.895851}, "html_instructions": "Make a <b>U-turn</b> at <b>Rue Peel</b><div style=\"font-size:0.9em\">Destination will be on the right</div>", "maneuver": "uturn-left", "polyline": {"points": "awbtG`fyuLHIWg@JM"}, "start_location": {"lat": 45.4028867, "lng": -71.8961738}, "travel_mode": "WALKING"}], "travel_mode": "WALKING"}, {"distance": {"text": "1.7 km", "value": 1733}, "duration": {"text": "6 mins", "value": 346}, "end_location": {"lat": 45.412958, "lng": -71.884905}, "html_instructions": "Bus towards Chardonnerets / Marika", "polyline": {"points": "cwbtG`dyuLCBsF}KU[s@\\IF}BpA_@^MNCBu@x@sCxCcAjAKJYOGGGIIOSWCEQUe@q@Wc@MSS_@a@_AY{@K[yEuOYiAe@wAKW[w@_@o@_BgCCUwBgDOWsBaDwA}B_@m@}DeGj@w@DKDD"}, "start_location": {"lat": 45.4029, "lng": -71.895851}, "transit_details": {"arrival_stop": {"location": {"lat": 45.412958, "lng": -71.884905}, "name": "Plateau Sylvie-Daigle"}, "arrival_time": {"text": "2:06pm", "time_zone": "America/Toronto", "value": 1522778814}, "departure_stop": {"location": {"lat": 45.4029, "lng": -71.895851}, "name": "Mus\u00e9e de la nature et des sciences de Sherbrooke"}, "departure_time": {"text": "2:01pm", "time_zone": "America/Toronto", "value": 1522778468}, "headsign": "Chardonnerets / Marika", "line": {"agencies": [{"name": "Soci\u00e9t\u00e9 de Transport de Sherbrooke", "phone": "1 (819) 564-2687", "url": "http://www.sts.qc.ca/"}], "color": "#994500", "name": "Universit\u00e9 de Sherbrooke <> des Chardonnerets", "short_name": "9", "text_color": "#ffffff", "vehicle": {"icon": "//maps.gstatic.com/mapfiles/transit/iw2/6/bus2.png", "name": "Bus", "type": "BUS"}}, "num_stops": 7}, "travel_mode": "TRANSIT"}, {"distance": {"text": "2 m", "value": 2}, "duration": {"text": "1 min", "value": 1}, "end_location": {"lat": 45.413062, "lng": -71.884778}, "html_instructions": "Walk to Plateau Sylvie-Daigle", "polyline": {"points": "_vdtGr_wuLGKA@IM"}, "start_location": {"lat": 45.412958, "lng": -71.884905}, "steps": [{"distance": {"text": "2 m", "value": 2}, "duration": {"text": "1 min", "value": 1}, "end_location": {"lat": 45.413062, "lng": -71.884778}, "html_instructions": "Head <b>northwest</b> toward <b>Rue Terrill</b>", "polyline": {"points": "_vdtGr_wuLGKA@IM"}, "start_location": {"lat": 45.412958, "lng": -71.884905}, "travel_mode": "WALKING"}], "travel_mode": "WALKING"}, {"distance": {"text": "1.9 km", "value": 1856}, "duration": {"text": "4 mins", "value": 213}, "end_location": {"lat": 45.41184699999999, "lng": -71.87109699999999}, "html_instructions": "Bus towards 13e Avenue / 24-Juin", "polyline": {"points": "svdtGz~vuLBDY`@Y\\oByC[SIK}AeCOa@iCgEO_@ESI_@My@G{@Gi@A}@@{@|@i@nAy@lA_AVOb@Y^S?AJIRItAc@_AsHG]MoB]_DACCYdBEnFC|ICx@AeAiEcAoE_@{A]wAAG_AuDG[k@cCHE"}, "start_location": {"lat": 45.413062, "lng": -71.884778}, "transit_details": {"arrival_stop": {"location": {"lat": 45.41184699999999, "lng": -71.87109699999999}, "name": "Papineau / 12e av. Nord"}, "arrival_time": {"text": "2:19pm", "time_zone": "America/Toronto", "value": 1522779540}, "departure_stop": {"location": {"lat": 45.413062, "lng": -71.884778}, "name": "Plateau Sylvie-Daigle"}, "departure_time": {"text": "2:15pm", "time_zone": "America/Toronto", "value": 1522779327}, "headsign": "13e Avenue / 24-Juin", "line": {"agencies": [{"name": "Soci\u00e9t\u00e9 de Transport de Sherbrooke", "phone": "1 (819) 564-2687", "url": "http://www.sts.qc.ca/"}], "color": "#0277bd", "name": "Carrefour de l'Estrie <> 13e avenue - du 24-Juin", "short_name": "3", "text_color": "#ffffff", "vehicle": {"icon": "//maps.gstatic.com/mapfiles/transit/iw2/6/bus2.png", "name": "Bus", "type": "BUS"}}, "num_stops": 9}, "travel_mode": "TRANSIT"}, {"distance": {"text": "0.2 km", "value": 169}, "duration": {"text": "3 mins", "value": 172}, "end_location": {"lat": 45.4129528, "lng": -71.8701923}, "html_instructions": "Walk to Sherbrooke, QC J1E 2Y2, Canada", "polyline": {"points": "aodtGjituLKFEQg@gBi@gBwBb@"}, "start_location": {"lat": 45.41184699999999, "lng": -71.87109699999999}, "steps": [{"distance": {"text": "0.1 km", "value": 101}, "duration": {"text": "2 mins", "value": 107}, "end_location": {"lat": 45.4123505, "lng": -71.87001479999999}, "html_instructions": "Head <b>northeast</b> on <b>Rue Papineau</b> toward <b>12e Avenue N</b>/<b>QC-216 O</b>", "polyline": {"points": "aodtGjituLKFEQg@gBi@gB"}, "start_location": {"lat": 45.41184699999999, "lng": -71.87109699999999}, "travel_mode": "WALKING"}, {"distance": {"text": "68 m", "value": 68}, "duration": {"text": "1 min", "value": 65}, "end_location": {"lat": 45.4129528, "lng": -71.8701923}, "html_instructions": "Turn <b>left</b> onto <b>13e Avenue N</b>/<b>QC-216 E</b><div style=\"font-size:0.9em\">Destination will be on the right</div>", "maneuver": "turn-left", "polyline": {"points": "erdtGpbtuLwBb@"}, "start_location": {"lat": 45.4123505, "lng": -71.87001479999999}, "travel_mode": "WALKING"}], "travel_mode": "WALKING"}], "traffic_speed_entry": [], "via_waypoint": []}], "overview_polyline": {"points": "}xbtGvbyuLz@hBHIWg@JMCBsF}KU[s@\\gCxAm@n@y@|@wEdFKJYOOQs@cA_BiC{@{BeFqPYiAe@wAg@oA_CwDCUwBgDcCyDwBkD}DeGj@w@DKDDGKA@IMBDs@~@oByC[SgBqCOa@iCgEUs@WyAOeB?yBlCcBdBoAnAy@hBm@gAqIm@sGCYdBElQGx@AiCyK_CqJs@_DHEKFm@yBi@gBwBb@"}, "summary": "", "warnings": ["Walking directions are in beta.    Use caution \u2013 This route may be missing sidewalks or pedestrian paths."], "waypoint_order": []}], "status": "OK"}