{"geocoded_waypoints": [{"geocoder_status": "OK", "place_id": "ChIJo-AIJwyzt0wRX6Df1ZBrfkQ", "types": ["establishment", "museum", "point_of_interest"]}, {"geocoder_status": "OK", "partial_match": true, "place_id": "ChIJe8zDXfeyt0wRhGb4tdVBO2s", "types": ["bus_station", "establishment", "point_of_interest", "transit_station"]}], "routes": [{"bounds": {"northeast": {"lat": 45.414497, "lng": -71.861222}, "southwest": {"lat": 45.396223, "lng": -71.89697100000001}}, "copyrights": "Map data \u00a92018 Google", "fare": {"currency": "CAD", "text": "CA$3.30", "value": 3.3}, "legs": [{"arrival_time": {"text": "2:13pm", "time_zone": "America/Toronto", "value": 1522779232}, "departure_time": {"text": "1:46pm", "time_zone": "America/Toronto", "value": 1522777567}, "distance": {"text": "8.6 km", "value": 8619}, "duration": {"text": "28 mins", "value": 1665}, "end_address": "Sherbrooke, QC J1G 1S9, Canada", "end_location": {"lat": 45.401201, "lng": -71.861222}, "start_address": "225 Rue Frontenac, Sherbrooke, QC J1H 1K1, Canada", "start_location": {"lat": 45.4031946, "lng": -71.8956388}, "steps": [{"distance": {"text": "0.9 km", "value": 885}, "duration": {"text": "11 mins", "value": 673}, "end_location": {"lat": 45.402473, "lng": -71.88779}, "html_instructions": "Walk to Pont Aylmer", "polyline": {"points": "}xbtGvbyuLgA{Bq@yAGIyA_DOa@Cc@EYG]g@mB[qBMeAIu@Gc@PMHMJYDGpCkBl@_@EWCSlEkCHEDIHEdBy@e@iAGOPQo@yAJK"}, "start_location": {"lat": 45.4031946, "lng": -71.8956388}, "steps": [{"distance": {"text": "0.4 km", "value": 407}, "duration": {"text": "5 mins", "value": 293}, "end_location": {"lat": 45.4049583, "lng": -71.89116829999999}, "html_instructions": "Head <b>northeast</b> on <b>Rue Frontenac</b> toward <b>Rue Dufferin</b>/<b>Pont Gilbert-Hyatt</b>", "polyline": {"points": "}xbtGvbyuLgA{Bq@yAGIyA_DOa@Cc@EYG]g@mB[qBMeAIu@Gc@"}, "start_location": {"lat": 45.4031946, "lng": -71.8956388}, "travel_mode": "WALKING"}, {"distance": {"text": "0.2 km", "value": 156}, "duration": {"text": "2 mins", "value": 120}, "end_location": {"lat": 45.4037655, "lng": -71.89015789999999}, "html_instructions": "Turn <b>right</b> toward <b>Rue King O</b>/<b>QC-112 O</b><div style=\"font-size:0.9em\">Take the stairs</div>", "maneuver": "turn-right", "polyline": {"points": "_dctGxfxuLPMHMJYDGpCkBl@_@"}, "start_location": {"lat": 45.4049583, "lng": -71.89116829999999}, "travel_mode": "WALKING"}, {"distance": {"text": "0.2 km", "value": 223}, "duration": {"text": "3 mins", "value": 160}, "end_location": {"lat": 45.40215200000001, "lng": -71.88884139999999}, "html_instructions": "Turn <b>left</b> toward <b>Rue King O</b>/<b>QC-112 O</b>", "maneuver": "turn-left", "polyline": {"points": "q|btGn`xuLEWCSlEkCHEDIHEdBy@"}, "start_location": {"lat": 45.4037655, "lng": -71.89015789999999}, "travel_mode": "WALKING"}, {"distance": {"text": "43 m", "value": 43}, "duration": {"text": "1 min", "value": 43}, "end_location": {"lat": 45.4023767, "lng": -71.8883936}, "html_instructions": "Turn <b>left</b> onto <b>Rue King O</b>/<b>QC-112 O</b>", "maneuver": "turn-left", "polyline": {"points": "mrbtGfxwuLe@iAGO"}, "start_location": {"lat": 45.40215200000001, "lng": -71.88884139999999}, "travel_mode": "WALKING"}, {"distance": {"text": "12 m", "value": 12}, "duration": {"text": "1 min", "value": 19}, "end_location": {"lat": 45.4022888, "lng": -71.8882989}, "html_instructions": "Turn <b>right</b> onto <b>Rue des Grandes-Fourches S</b>/<b>QC-143 N</b>", "maneuver": "turn-right", "polyline": {"points": "{sbtGluwuLPQ"}, "start_location": {"lat": 45.4023767, "lng": -71.8883936}, "travel_mode": "WALKING"}, {"distance": {"text": "44 m", "value": 44}, "duration": {"text": "1 min", "value": 38}, "end_location": {"lat": 45.402473, "lng": -71.88779}, "html_instructions": "Turn <b>left</b> onto <b>Rue King O</b>/<b>QC-112 E</b><div style=\"font-size:0.9em\">Destination will be on the right</div>", "maneuver": "turn-left", "polyline": {"points": "isbtGztwuLo@yAJK"}, "start_location": {"lat": 45.4022888, "lng": -71.8882989}, "travel_mode": "WALKING"}], "travel_mode": "WALKING"}, {"distance": {"text": "7.7 km", "value": 7734}, "duration": {"text": "17 mins", "value": 992}, "end_location": {"lat": 45.401201, "lng": -71.861222}, "html_instructions": "Bus towards 13e Avenue / 24-Juin", "polyline": {"points": "mtbtGtqwuLGFc@eAKSQCYm@iEwKcAp@mEpCm@b@SPIJOVQ^CHW~@[`BSz@K^[t@KPCHGDgAjA_@^a@d@aArA_A|A]p@sArC[h@e@l@iDlCe@b@c@f@KNUZCBa@r@]v@[x@Yz@S~@Q|@M`AK`ACb@s@IW?UNmAzAkB`CQRONgA{BMKGAG?MJ_BpBe@`@OH_@LG?MICGCIIiAGm@?M@MHYfAwAlA{AjA{A|BwClFwGrGgIHKdAwAKW_@o@_BgCCUwBgDOWsBaDwA}B_@m@}DeGj@w@DKlAuBHYVq@LMFING`AUFV^`E?JBJDHHDF@F?HCLIDKBM?Mc@}DGm@zAc@x@]pDsCFED@HBBHv@pDHZjIw@nCWNE\\_@^e@V_@JMyAqCCEMCsBiD[s@Wc@AEGUG_@AO~BCfCB`F?hI?NALEd@WXUbAo@`JaGt@g@d@WZWp@W|A[XIdBk@`Be@v@WXGn@KD?PAV?u@{D[kBMq@G]E[e@mEc@gDIeAA[@[DYNw@DSBO~M_E`@MI_R?[m@@OBYFo@DC?uHBCMMB[DYF[JUHUHo@{IUwDASu@La@Bw@?[Aw@GmA]ME?sCCoCAuEAiFF?"}, "start_location": {"lat": 45.402473, "lng": -71.88779}, "transit_details": {"arrival_stop": {"location": {"lat": 45.401201, "lng": -71.861222}, "name": "Chalifoux / Longpr\u00e9"}, "arrival_time": {"text": "2:13pm", "time_zone": "America/Toronto", "value": 1522779232}, "departure_stop": {"location": {"lat": 45.402473, "lng": -71.88779}, "name": "Pont Aylmer"}, "departure_time": {"text": "1:57pm", "time_zone": "America/Toronto", "value": 1522778240}, "headsign": "13e Avenue / 24-Juin", "line": {"agencies": [{"name": "Soci\u00e9t\u00e9 de Transport de Sherbrooke", "phone": "1 (819) 564-2687", "url": "http://www.sts.qc.ca/"}], "color": "#1b5e20", "name": "Du Manoir <> 13e avenue - du 24-Juin", "short_name": "55", "text_color": "#ffffff", "vehicle": {"icon": "//maps.gstatic.com/mapfiles/transit/iw2/6/bus2.png", "name": "Bus", "type": "BUS"}}, "num_stops": 31}, "travel_mode": "TRANSIT"}], "traffic_speed_entry": [], "via_waypoint": []}], "overview_polyline": {"points": "}xbtGvbyuL{E_KOa@Cc@Mw@g@mB[qBW{BGc@PMTg@vCsBl@_@EWCSlEkCNOnB_Am@yAPQo@yAJKGFo@yAQCYm@iEwKcAp@{FtD]\\a@v@[hAo@|Cg@tAOZoApAaAdAaArA_A|AqBdEaAvAoEpDiAvA_AjBu@tBe@|BYbCCb@s@IW?UNyD|Ea@b@gA{BMKOAMJ_BpBu@j@g@LQQMsAG{@Jg@tCsDjUsYnAcBk@gA_BgCCUgC_EkE_H}EsHp@cAlAuBHYVq@LMVQ`AUFV^lEHTPFPCLIDKB[k@kFzAc@x@]xDyCNDz@zDHZjIw@~C]|@eAb@m@}AwCMCsBiDs@wAI[Io@~BCfCBjP?\\G~@m@dLqHzA_AZWp@WvBe@fEqApA_@t@Kh@AqAgHUoAk@iFm@mF?w@^uB`OmEI{R}@DYFo@DyHBCMMBu@Lq@TUHo@{IWkEu@La@BsAAw@GmA]ME?sCEeJAiFF?"}, "summary": "", "warnings": ["Walking directions are in beta.    Use caution \u2013 This route may be missing sidewalks or pedestrian paths."], "waypoint_order": []}], "status": "OK"}