{"geocoded_waypoints": [{"geocoder_status": "OK", "place_id": "ChIJj8nlPKazt0wRtN35m7P1nZg", "types": ["establishment", "park", "point_of_interest"]}, {"geocoder_status": "OK", "place_id": "ChIJ-9tiEU2yt0wRPn7WRCC51SE", "types": ["establishment", "park", "point_of_interest"]}], "routes": [{"bounds": {"northeast": {"lat": 45.41560399999999, "lng": -71.86186940000002}, "southwest": {"lat": 45.410307, "lng": -71.885128}}, "copyrights": "Map data \u00a92018 Google", "fare": {"currency": "CAD", "text": "CA$3.30", "value": 3.3}, "legs": [{"arrival_time": {"text": "2:27pm", "time_zone": "America/Toronto", "value": 1522780030}, "departure_time": {"text": "2:12pm", "time_zone": "America/Toronto", "value": 1522779145}, "distance": {"text": "3.4 km", "value": 3388}, "duration": {"text": "15 mins", "value": 885}, "end_address": "Des Jardins-Fleuris, 1245 Rue Papineau, Sherbrooke, QC J1E 4C4, Canada", "end_location": {"lat": 45.4153368, "lng": -71.86186940000002}, "start_address": "Parc Sylvie-Daigle, 400 Rue du C\u00e9gep, Sherbrooke, QC J1E 2J9, Canada", "start_location": {"lat": 45.4116885, "lng": -71.883163}, "steps": [{"distance": {"text": "0.2 km", "value": 223}, "duration": {"text": "3 mins", "value": 181}, "end_location": {"lat": 45.413062, "lng": -71.884778}, "html_instructions": "Walk to Plateau Sylvie-Daigle", "polyline": {"points": "andtGvtvuLaAVLhAc@LA?KDIDKFGFCDEFUZw@~AOT[d@IM"}, "start_location": {"lat": 45.4116885, "lng": -71.883163}, "steps": [{"distance": {"text": "38 m", "value": 38}, "duration": {"text": "1 min", "value": 34}, "end_location": {"lat": 45.4120228, "lng": -71.8832844}, "html_instructions": "Head <b>north</b>", "polyline": {"points": "andtGvtvuLaAV"}, "start_location": {"lat": 45.4116885, "lng": -71.883163}, "travel_mode": "WALKING"}, {"distance": {"text": "30 m", "value": 30}, "duration": {"text": "1 min", "value": 20}, "end_location": {"lat": 45.4119507, "lng": -71.8836501}, "html_instructions": "Turn <b>left</b>", "maneuver": "turn-left", "polyline": {"points": "cpdtGnuvuLLhA"}, "start_location": {"lat": 45.4120228, "lng": -71.8832844}, "travel_mode": "WALKING"}, {"distance": {"text": "0.2 km", "value": 155}, "duration": {"text": "2 mins", "value": 127}, "end_location": {"lat": 45.413062, "lng": -71.884778}, "html_instructions": "Turn <b>right</b><div style=\"font-size:0.9em\">Destination will be on the right</div>", "maneuver": "turn-right", "polyline": {"points": "uodtGxwvuLc@LA?KDIDKFGFCDEFUZw@~AOT[d@IM"}, "start_location": {"lat": 45.4119507, "lng": -71.8836501}, "travel_mode": "WALKING"}], "travel_mode": "WALKING"}, {"distance": {"text": "2.7 km", "value": 2748}, "duration": {"text": "7 mins", "value": 393}, "end_location": {"lat": 45.414171, "lng": -71.866322}, "html_instructions": "Bus towards 13e Avenue / 24-Juin", "polyline": {"points": "svdtGz~vuLBDY`@Y\\oByC[SIK}AeCOa@iCgEO_@ESI_@My@G{@Gi@A}@@{@|@i@nAy@lA_AVOb@Y^S?AJIRItAc@_AsHG]MoB]_DACCYdBEnFC|ICx@AeAiEcAoE_@{A]wAAG_AuDG[k@cCGUnAi@\\Ix@KrBA@yD?YAoC?eCAsAAsAkMFmADK?e@}AaAsDu@d@IDG@?A"}, "start_location": {"lat": 45.413062, "lng": -71.884778}, "transit_details": {"arrival_stop": {"location": {"lat": 45.414171, "lng": -71.866322}, "name": "des Jonquilles / Papineau"}, "arrival_time": {"text": "2:22pm", "time_zone": "America/Toronto", "value": 1522779720}, "departure_stop": {"location": {"lat": 45.413062, "lng": -71.884778}, "name": "Plateau Sylvie-Daigle"}, "departure_time": {"text": "2:15pm", "time_zone": "America/Toronto", "value": 1522779327}, "headsign": "13e Avenue / 24-Juin", "line": {"agencies": [{"name": "Soci\u00e9t\u00e9 de Transport de Sherbrooke", "phone": "1 (819) 564-2687", "url": "http://www.sts.qc.ca/"}], "color": "#0277bd", "name": "Carrefour de l'Estrie <> 13e avenue - du 24-Juin", "short_name": "3", "text_color": "#ffffff", "vehicle": {"icon": "//maps.gstatic.com/mapfiles/transit/iw2/6/bus2.png", "name": "Bus", "type": "BUS"}}, "num_stops": 13}, "travel_mode": "TRANSIT"}, {"distance": {"text": "0.4 km", "value": 417}, "duration": {"text": "5 mins", "value": 320}, "end_location": {"lat": 45.4153368, "lng": -71.86186940000002}, "html_instructions": "Walk to Des Jardins-Fleuris, 1245 Rue Papineau, Sherbrooke, QC J1E 4C4, Canada", "polyline": {"points": "q}dtGnksuL?ARIJGJG`@YmBaHaDuLg@kB"}, "start_location": {"lat": 45.414171, "lng": -71.866322}, "steps": [{"distance": {"text": "48 m", "value": 48}, "duration": {"text": "1 min", "value": 30}, "end_location": {"lat": 45.4137818, "lng": -71.86604659999999}, "html_instructions": "Head <b>south</b> on <b>Rue des Jonquilles</b> toward <b>Rue Papineau</b>", "polyline": {"points": "q}dtGnksuL?ARIJGJG`@Y"}, "start_location": {"lat": 45.414171, "lng": -71.866322}, "travel_mode": "WALKING"}, {"distance": {"text": "0.4 km", "value": 369}, "duration": {"text": "5 mins", "value": 290}, "end_location": {"lat": 45.4153368, "lng": -71.86186940000002}, "html_instructions": "Turn <b>left</b> onto <b>Rue Papineau</b><div style=\"font-size:0.9em\">Destination will be on the left</div>", "maneuver": "turn-left", "polyline": {"points": "c{dtGxisuLmBaHaDuLg@kB"}, "start_location": {"lat": 45.4137818, "lng": -71.86604659999999}, "travel_mode": "WALKING"}], "travel_mode": "WALKING"}], "traffic_speed_entry": [], "via_waypoint": []}], "overview_polyline": {"points": "andtGvtvuLaAVLhAe@LUJSNILUZw@~Ak@z@IMBDs@~@oByC[SgBqCOa@iCgEUs@WyAOeB?yBlCcBdBoAnAy@hBm@gAqIm@sGCYdBElQGx@AiCyK_CqJs@_DGUnAi@\\Ix@KrBA@yDAiDAyEAsAkMFyADgBqG_Aj@G??A^Ql@a@wHcY"}, "summary": "", "warnings": ["Walking directions are in beta.    Use caution \u2013 This route may be missing sidewalks or pedestrian paths."], "waypoint_order": []}], "status": "OK"}