{"geocoded_waypoints": [{"geocoder_status": "OK", "place_id": "ChIJ2QHYVEuzt0wRCkczUGODyEA", "types": ["establishment", "point_of_interest", "university"]}, {"geocoder_status": "OK", "place_id": "ChIJhfR8J-myt0wRxVfQG1CXw0o", "types": ["bus_station", "establishment", "point_of_interest", "transit_station"]}], "routes": [{"bounds": {"northeast": {"lat": 45.41324400000001, "lng": -71.86508599999999}, "southwest": {"lat": 45.3740865, "lng": -71.93311039999999}}, "copyrights": "Map data \u00a92018 Google", "fare": {"currency": "CAD", "text": "CA$3.30", "value": 3.3}, "legs": [{"arrival_time": {"text": "2:55pm", "time_zone": "America/Toronto", "value": 1522781739}, "departure_time": {"text": "2:09pm", "time_zone": "America/Toronto", "value": 1522778944}, "distance": {"text": "11.7 km", "value": 11660}, "duration": {"text": "47 mins", "value": 2795}, "end_address": "Sherbrooke, QC J1G 2A2, Canada", "end_location": {"lat": 45.390384, "lng": -71.86508599999999}, "start_address": "2500 Boulevard de l'Universit\u00e9, Sherbrooke, QC J1K 2R1, Canada", "start_location": {"lat": 45.3740865, "lng": -71.93285139999999}, "steps": [{"distance": {"text": "0.9 km", "value": 940}, "duration": {"text": "11 mins", "value": 689}, "end_location": {"lat": 45.381401, "lng": -71.930557}, "html_instructions": "Walk to boul. de l'Universit\u00e9 / Prunier", "polyline": {"points": "ac}sGhk`vLu@B_EF]@]@W?WBi@@qAB_@@aAHu@FM?YBA?G?o@@]AM?kGE_CBC_@AWEQIMGGMGaAk@GEEIEKGSEWAWAKAa@GWGUKSGOSEcA]@OAGOSEAM@Ac@PQ"}, "start_location": {"lat": 45.3740865, "lng": -71.93285139999999}, "steps": [{"distance": {"text": "0.7 km", "value": 651}, "duration": {"text": "8 mins", "value": 466}, "end_location": {"lat": 45.3799343, "lng": -71.93308569999999}, "html_instructions": "Head <b>north</b> on <b>Chemin de Sainte-Catherine</b>/<b>QC-216 E</b>", "polyline": {"points": "ac}sGhk`vLu@B_EF]@]@W?WBi@@qAB_@@aAHu@FM?YBA?G?o@@]AM?kGE_CB"}, "start_location": {"lat": 45.3740865, "lng": -71.93285139999999}, "travel_mode": "WALKING"}, {"distance": {"text": "0.2 km", "value": 192}, "duration": {"text": "3 mins", "value": 157}, "end_location": {"lat": 45.3808612, "lng": -71.9312252}, "html_instructions": "Turn <b>right</b> onto <b>Voie 12</b>", "maneuver": "turn-right", "polyline": {"points": "qg~sGxl`vLC_@AWEQIMGGMGaAk@GEEIEKGSEWAWAKAa@GWGUKSGO"}, "start_location": {"lat": 45.3799343, "lng": -71.93308569999999}, "travel_mode": "WALKING"}, {"distance": {"text": "83 m", "value": 83}, "duration": {"text": "1 min", "value": 55}, "end_location": {"lat": 45.3814774, "lng": -71.9308346}, "html_instructions": "Slight <b>left</b> to stay on <b>Voie 12</b>", "maneuver": "turn-slight-left", "polyline": {"points": "km~sGda`vLSEcA]@OAGOSEAM@"}, "start_location": {"lat": 45.3808612, "lng": -71.9312252}, "travel_mode": "WALKING"}, {"distance": {"text": "14 m", "value": 14}, "duration": {"text": "1 min", "value": 11}, "end_location": {"lat": 45.381401, "lng": -71.930557}, "html_instructions": "Turn <b>right</b> onto <b>Boulevard de l'Universit\u00e9</b>/<b>QC-216 E</b>", "maneuver": "turn-right", "polyline": {"points": "gq~sGt~_vLAc@PQ"}, "start_location": {"lat": 45.3814774, "lng": -71.9308346}, "travel_mode": "WALKING"}], "travel_mode": "WALKING"}, {"distance": {"text": "6.5 km", "value": 6471}, "duration": {"text": "17 mins", "value": 1047}, "end_location": {"lat": 45.41145299999999, "lng": -71.884168}, "html_instructions": "Bus towards Chardonnerets / Marika", "polyline": {"points": "wp~sG~|_vLK@AOC_@Io@U}A_AwDm@wBKYSo@c@kASm@Yo@]q@]o@g@s@m@}@[m@OQUQUUMMc@e@i@c@iAy@m@a@SI[OqAg@iCu@YMWIWOOUK[E[CQ@}C@{B@OBmHBmE@iA?w@EwB?s@?I?gA?eC@iBAaB@gB@iHBoA@sC@[?C?E@Y?UAIBs@@IDeA?_@EeAG_@Qy@AAK_@oAaCc@s@uB}Dg@eAgA}B}@cC]o@IMWi@e@w@e@s@CG{@wAq@kAYg@IKO[{@oAIOgAmBOUQ[uCmEo@aAc@}@m@oBCOEQ[iAUgAIo@i@qCAEI]AICMSq@Sm@_@mA]}@e@{A}@oCWA]IsCKkA?u@@KDG?yCQgAAC?i@?KDu@^m@d@o@b@s@d@mEjCGBk@TA@k@`@a@\\cBfAoAz@UNYy@]u@c@s@sAqCCQAIcC}EsF}KU[s@\\IF}BpA_@^MNCBu@x@sCxCcAjAKJYOGGGIIOSWCEQUe@q@Wc@MSS_@a@_AY{@K[yEuOYiAe@wAKW[w@_@o@_BgCCUwBgDOWsBaDwA}B_@m@}DeGj@w@DKlAuBHYVq@LMFING`AUFV^`E?JBJDHHDF@F?HCLIDKBM?MQaB"}, "start_location": {"lat": 45.381401, "lng": -71.930557}, "transit_details": {"arrival_stop": {"location": {"lat": 45.41145299999999, "lng": -71.884168}, "name": "Station du C\u00e9gep - Quai F"}, "arrival_time": {"text": "2:38pm", "time_zone": "America/Toronto", "value": 1522780680}, "departure_stop": {"location": {"lat": 45.381401, "lng": -71.930557}, "name": "boul. de l'Universit\u00e9 / Prunier"}, "departure_time": {"text": "2:20pm", "time_zone": "America/Toronto", "value": 1522779633}, "headsign": "Chardonnerets / Marika", "line": {"agencies": [{"name": "Soci\u00e9t\u00e9 de Transport de Sherbrooke", "phone": "1 (819) 564-2687", "url": "http://www.sts.qc.ca/"}], "color": "#994500", "name": "Universit\u00e9 de Sherbrooke <> des Chardonnerets", "short_name": "9", "text_color": "#ffffff", "vehicle": {"icon": "//maps.gstatic.com/mapfiles/transit/iw2/6/bus2.png", "name": "Bus", "type": "BUS"}}, "num_stops": 26}, "travel_mode": "TRANSIT"}, {"distance": {"text": "1 m", "value": 0}, "duration": {"text": "1 min", "value": 0}, "end_location": {"lat": 45.41145299999999, "lng": -71.884168}, "html_instructions": "Walk to Station du C\u00e9gep - Quai F", "polyline": {"points": "qldtG`{vuL"}, "start_location": {"lat": 45.41145299999999, "lng": -71.884168}, "steps": [{"distance": {"text": "1 m", "value": 0}, "duration": {"text": "1 min", "value": 0}, "end_location": {"lat": 45.41145299999999, "lng": -71.884168}, "polyline": {"points": "qldtG`{vuL"}, "start_location": {"lat": 45.41145299999999, "lng": -71.884168}, "travel_mode": "WALKING"}], "travel_mode": "WALKING"}, {"distance": {"text": "4.2 km", "value": 4249}, "duration": {"text": "9 mins", "value": 519}, "end_location": {"lat": 45.390384, "lng": -71.86508599999999}, "html_instructions": "Bus towards Bowen - Talbot", "polyline": {"points": "qldtG`{vuLIq@AEMqAzAc@x@]pDsCFED@HBBHv@pDHZ`BOhAM~C[JArBQNANE\\_@^e@V_@JMyAqCCEMCsBiD[s@Wc@AEGUG_@AO~BCfCB`F?hI?NALEd@WXUbAo@`JaGt@g@e@lJCb@CpBCh@Ap@DzALjAFb@?@FV@FHLRNb@w@rC_CJKxBoBJG|AuAbHiG~C}B~@s@h@YPMbEkCp@a@nGgGr@s@BCBEDCFI?CbAcAlAuABCRa@hBqCl@eAnE_IbD_G?mB?iDsCFS?KaS?AA_DL?"}, "start_location": {"lat": 45.41145299999999, "lng": -71.884168}, "transit_details": {"arrival_stop": {"location": {"lat": 45.390384, "lng": -71.86508599999999}, "name": "Aubry / de Caen"}, "arrival_time": {"text": "2:55pm", "time_zone": "America/Toronto", "value": 1522781739}, "departure_stop": {"location": {"lat": 45.41145299999999, "lng": -71.884168}, "name": "Station du C\u00e9gep - Quai F"}, "departure_time": {"text": "2:47pm", "time_zone": "America/Toronto", "value": 1522781220}, "headsign": "Bowen - Talbot", "line": {"agencies": [{"name": "Soci\u00e9t\u00e9 de Transport de Sherbrooke", "phone": "1 (819) 564-2687", "url": "http://www.sts.qc.ca/"}], "color": "#a6d514", "name": "Carrefour de l'Estrie <> Bowen - Talbot", "short_name": "1", "text_color": "#000000", "vehicle": {"icon": "//maps.gstatic.com/mapfiles/transit/iw2/6/bus2.png", "name": "Bus", "type": "BUS"}}, "num_stops": 17}, "travel_mode": "TRANSIT"}], "traffic_speed_entry": [], "via_waypoint": []}], "overview_polyline": {"points": "ac}sGhk`vL}MXeDRsADk@AkGE_CBEw@O_@_BaAKUMk@Cc@Iy@Si@GOSEcA]@OQ[S?Ac@PQK@AOMoAU}A_AwDy@qCw@{Bm@}A{@aBuAqBk@_Ak@g@q@s@sB}AaAk@mBw@cDcAo@YOUK[Im@HwQDwGEoD?kGB}QFcG?_AJcDEeAYyAMa@sBuD}CcGgA}B}@cCg@}@}@aBwC_FoB_DsBoDeEoGc@}@m@oBIa@[iAUgAs@aEKc@EWg@_B}@kCcBkFWA]IsCKkA?u@@KDaDQkAAi@?KDu@^m@d@cBhAuEnCk@Tm@b@eCdBeBjAw@oBwBeEE[wJ{RU[s@\\gCxAm@n@y@|@wEdFKJYOOQs@cA_BiC{@{BeFqPYiAe@wAg@oA_CwDCUwBgDcCyDwBkD}DeGj@w@rAaC`@kATWNG`AUf@xEBVNNN@VMHY?MQaBKw@MqAzAc@x@]pDsCLCLL`AlEjD]nHq@NE\\_@v@eAJMyAqCCEMCsBiD[s@Yi@Ou@AO~BChJBxIAr@]|AeAvKiHi@pKGzCBlC\\hCJTRNb@w@~CkCdCwB`K_J~EqD~FsDp@a@nGgGv@w@HIFMpCyCVe@vCwErJ_Q?wGgDFKcSA_DL?"}, "summary": "", "warnings": ["Walking directions are in beta.    Use caution \u2013 This route may be missing sidewalks or pedestrian paths."], "waypoint_order": []}], "status": "OK"}