{"geocoded_waypoints": [{"geocoder_status": "OK", "partial_match": true, "place_id": "ChIJe8zDXfeyt0wRhGb4tdVBO2s", "types": ["bus_station", "establishment", "point_of_interest", "transit_station"]}, {"geocoder_status": "OK", "partial_match": true, "place_id": "ChIJhZFgMMqzt0wRLBglXHio-zY", "types": ["street_address"]}], "routes": [{"bounds": {"northeast": {"lat": 45.4267563, "lng": -71.858296}, "southwest": {"lat": 45.401201, "lng": -71.87373199999999}}, "copyrights": "Map data \u00a92018 Google", "fare": {"currency": "CAD", "text": "CA$3.30", "value": 3.3}, "legs": [{"arrival_time": {"text": "2:34pm", "time_zone": "America/Toronto", "value": 1522780460}, "departure_time": {"text": "2:13pm", "time_zone": "America/Toronto", "value": 1522779232}, "distance": {"text": "5.1 km", "value": 5126}, "duration": {"text": "20 mins", "value": 1228}, "end_address": "1225 Rue Despr\u00e9s, Sherbrooke, QC J1E 4A8, Canada", "end_location": {"lat": 45.4267563, "lng": -71.86415749999999}, "start_address": "Sherbrooke, QC J1G 1S9, Canada", "start_location": {"lat": 45.401201, "lng": -71.861222}, "steps": [{"distance": {"text": "4.1 km", "value": 4147}, "duration": {"text": "10 mins", "value": 574}, "end_location": {"lat": 45.420921, "lng": -71.869616}, "html_instructions": "Bus towards 13e Avenue / 24-Juin", "polyline": {"points": "olbtGrkruLG?EsIGsF{@?oA?mKRHX\\rAXhA\\~A\\bCJ~@BZ@V@^?FAF?F?NG~@CLCPSv@IXCJGRA@Ol@Op@Kn@C\\CXCt@@pA?f@B`C?tAJdJ?VBrKFrQ@bGcA@uIFmLH]??mEeA?mPJE@A?CBMH_AuDG[k@cCGUqAmEyAX_@Fg@Lg@HG?IBODmA^c@Tc@TkAv@iBhAwAt@{Af@g@LE@o@Lo@J{Ej@iFl@gEd@Q{QwCF?O"}, "start_location": {"lat": 45.401201, "lng": -71.861222}, "transit_details": {"arrival_stop": {"location": {"lat": 45.420921, "lng": -71.869616}, "name": "Galeries Quatre-Saisons"}, "arrival_time": {"text": "2:23pm", "time_zone": "America/Toronto", "value": 1522779806}, "departure_stop": {"location": {"lat": 45.401201, "lng": -71.861222}, "name": "Chalifoux / Longpr\u00e9"}, "departure_time": {"text": "2:13pm", "time_zone": "America/Toronto", "value": 1522779232}, "headsign": "13e Avenue / 24-Juin", "line": {"agencies": [{"name": "Soci\u00e9t\u00e9 de Transport de Sherbrooke", "phone": "1 (819) 564-2687", "url": "http://www.sts.qc.ca/"}], "color": "#1b5e20", "name": "Du Manoir <> 13e avenue - du 24-Juin", "short_name": "55", "text_color": "#ffffff", "vehicle": {"icon": "//maps.gstatic.com/mapfiles/transit/iw2/6/bus2.png", "name": "Bus", "type": "BUS"}}, "num_stops": 19}, "travel_mode": "TRANSIT"}, {"distance": {"text": "1.0 km", "value": 979}, "duration": {"text": "11 mins", "value": 656}, "end_location": {"lat": 45.4267563, "lng": -71.86415749999999}, "html_instructions": "Walk to 1225 Rue Despr\u00e9s, Sherbrooke, QC J1E 4A8, Canada", "polyline": {"points": "wgftGb`tuL?ZaABw@@mAA?kAG?Q?eHEk@B{@@q@ASOEECGCGESMs@EW?G?G?I@e@K?K?MBQFiBz@Ie@]gBmDwPIa@o@gDAG"}, "start_location": {"lat": 45.420921, "lng": -71.869616}, "steps": [{"distance": {"text": "0.1 km", "value": 112}, "duration": {"text": "1 min", "value": 79}, "end_location": {"lat": 45.4219212, "lng": -71.8697802}, "html_instructions": "Head <b>north</b>", "polyline": {"points": "wgftGb`tuL?ZaABw@@mAA"}, "start_location": {"lat": 45.420921, "lng": -71.869616}, "travel_mode": "WALKING"}, {"distance": {"text": "30 m", "value": 30}, "duration": {"text": "1 min", "value": 24}, "end_location": {"lat": 45.4219172, "lng": -71.8694007}, "html_instructions": "Turn <b>right</b> toward <b>Rue des Bl\u00e9s</b>", "maneuver": "turn-right", "polyline": {"points": "_nftGbatuL?kA"}, "start_location": {"lat": 45.4219212, "lng": -71.8697802}, "travel_mode": "WALKING"}, {"distance": {"text": "0.4 km", "value": 353}, "duration": {"text": "4 mins", "value": 239}, "end_location": {"lat": 45.4245829, "lng": -71.86839979999999}, "html_instructions": "Turn <b>left</b> onto <b>Rue des Bl\u00e9s</b>", "maneuver": "turn-left", "polyline": {"points": "_nftGv~suLG?Q?eHEk@B{@@q@ASOEECGCGESMs@EW?G?G?I@e@"}, "start_location": {"lat": 45.4219172, "lng": -71.8694007}, "travel_mode": "WALKING"}, {"distance": {"text": "94 m", "value": 94}, "duration": {"text": "1 min", "value": 65}, "end_location": {"lat": 45.42538829999999, "lng": -71.8687552}, "html_instructions": "Turn <b>left</b> onto <b>Rue des Paysans</b>", "maneuver": "turn-left", "polyline": {"points": "s~ftGnxsuLK?K?MBQFiBz@"}, "start_location": {"lat": 45.4245829, "lng": -71.86839979999999}, "travel_mode": "WALKING"}, {"distance": {"text": "0.4 km", "value": 390}, "duration": {"text": "4 mins", "value": 249}, "end_location": {"lat": 45.4267563, "lng": -71.86415749999999}, "html_instructions": "Turn <b>right</b> onto <b>Rue Despr\u00e9s</b><div style=\"font-size:0.9em\">Destination will be on the left</div>", "maneuver": "turn-right", "polyline": {"points": "ucgtGvzsuLIe@]gBmDwPIa@o@gDAG"}, "start_location": {"lat": 45.42538829999999, "lng": -71.8687552}, "travel_mode": "WALKING"}], "travel_mode": "WALKING"}], "traffic_speed_entry": [], "via_waypoint": []}], "overview_polyline": {"points": "olbtGrkruLG?EsIGsF{@?oA?mKRf@lBv@hDh@bEDr@@f@I~AG^]pA]nA[`BGv@AfCBhDJzLBjLHvYyKHkMH?mEeA?sPLEBMH_AuDs@_DyAcFyB`@aBZ}Ad@gAj@uD`CwAt@{Af@m@N_BXeMxAgEd@Q{QwCF?O?ZaABeC??kAG?wHEgBDq@ASOIM]gB@_AW?_@JiBz@Ie@kE_T{@qE"}, "summary": "", "warnings": ["Walking directions are in beta.    Use caution \u2013 This route may be missing sidewalks or pedestrian paths."], "waypoint_order": []}], "status": "OK"}