{"geocoded_waypoints": [{"geocoder_status": "OK", "place_id": "ChIJ4TgWUf6yt0wR8bVbRB505Uc", "types": ["bus_station", "establishment", "point_of_interest", "transit_station"]}, {"geocoder_status": "OK", "place_id": "ChIJQwOsN_-0t0wRotSuUmiKUN8", "types": ["establishment", "point_of_interest"]}], "routes": [{"bounds": {"northeast": {"lat": 45.425052, "lng": -71.86801799999999}, "southwest": {"lat": 45.397985, "lng": -71.9648201}}, "copyrights": "Map data \u00a92018 Google", "fare": {"currency": "CAD", "text": "CA$3.30", "value": 3.3}, "legs": [{"arrival_time": {"text": "3:00pm", "time_zone": "America/Toronto", "value": 1522782020}, "departure_time": {"text": "1:57pm", "time_zone": "America/Toronto", "value": 1522778223}, "distance": {"text": "14.9 km", "value": 14868}, "duration": {"text": "1 hour 3 mins", "value": 3797}, "end_address": "1600 Boulevard du Plateau-Saint-Joseph, Sherbrooke, QC J1L 0C8, Canada", "end_location": {"lat": 45.4225888, "lng": -71.9648201}, "start_address": "Sherbrooke, QC J1G 2V5, Canada", "start_location": {"lat": 45.4038184, "lng": -71.8705311}, "steps": [{"distance": {"text": "0.4 km", "value": 352}, "duration": {"text": "4 mins", "value": 244}, "end_location": {"lat": 45.400633, "lng": -71.87036719999999}, "html_instructions": "Walk to boul. Lavigerie / Chalifoux", "polyline": {"points": "{|btGxetuLP?fOGdAWDCHEBEHN"}, "start_location": {"lat": 45.4038184, "lng": -71.8705311}, "steps": [{"distance": {"text": "0.4 km", "value": 352}, "duration": {"text": "4 mins", "value": 244}, "end_location": {"lat": 45.400633, "lng": -71.87036719999999}, "html_instructions": "Head <b>south</b> on <b>12e Avenue S</b>/<b>QC-216 O</b> toward <b>Rue du Conseil</b><div style=\"font-size:0.9em\">Continue to follow QC-216 O</div><div style=\"font-size:0.9em\">Destination will be on the right</div>", "polyline": {"points": "{|btGxetuLP?fOGdAWDCHEBEHN"}, "start_location": {"lat": 45.4038184, "lng": -71.8705311}, "travel_mode": "WALKING"}], "travel_mode": "WALKING"}, {"distance": {"text": "9.6 km", "value": 9583}, "duration": {"text": "31 mins", "value": 1853}, "end_location": {"lat": 45.402358, "lng": -71.952818}, "html_instructions": "Bus towards Carrefour de l'Estrie", "polyline": {"points": "}hbtGxdtuLGODC@ABEDELMHIDEDGJOBGLYJYFQBGNg@FW^aAL_@^u@BGFGPUJKTQNKvAvRD|@APE\\Ib@Ov@CLAJAZ@ZHdAb@fD`@tDBVLx@Lp@ZjBt@zDW?W@o@JE@SDw@VaBd@aAZ}@X}AZkA?_@AGhA{LbI_@TYTe@VMDO@aI?iF?gCCo@@oA@@NF^FTXh@Zr@V`@zAfC@Rz@|A`@v@W^_@d@]^ODsBRgJz@_AkEAACIICEAGDqDrCy@\\{Ab@aA\\FVPlBLrA?JBJDHHDF@F?HCLIDKBM?Mk@kFaA\\aATOFGHMLWp@IFe@z@q@~@Y`@Y\\DFONfAdBhBjCTZhFhIJPzBlDPH~AfC^n@f@nA^fA?@DLXhAxEtOJZXz@`@~@R^LRVb@d@p@PTBDJf@DR@J?NAPEXAD?BAJ?VF\\Lb@p@jCDThAbDLd@`AtBPb@f@jAVr@DVBPFv@AxCNd@DF@DDDHDvA@rBBPDb@PJJJLNRR`@@DFPBLBJDP@H@J@T@N?N?b@?N@h@B|BI~YC~KCjH?n@ChIIfXKX?b@GfQEfQEhN?fB?jBC|CG|SChF@hAAlI?^@fCBjPA~A?`@F~P?rA?B?DH~EDrAXrQL~H?`@@VF`E\\|RjCGBhAjACEkC@VG@"}, "start_location": {"lat": 45.400633, "lng": -71.87036719999999}, "transit_details": {"arrival_stop": {"location": {"lat": 45.402358, "lng": -71.952818}, "name": "Carrefour de l'Estrie - Quai B"}, "arrival_time": {"text": "2:32pm", "time_zone": "America/Toronto", "value": 1522780320}, "departure_stop": {"location": {"lat": 45.400633, "lng": -71.87036719999999}, "name": "boul. Lavigerie / Chalifoux"}, "departure_time": {"text": "2:01pm", "time_zone": "America/Toronto", "value": 1522778467}, "headsign": "Carrefour de l'Estrie", "line": {"agencies": [{"name": "Soci\u00e9t\u00e9 de Transport de Sherbrooke", "phone": "1 (819) 564-2687", "url": "http://www.sts.qc.ca/"}], "color": "#9e9e9e", "name": "Carrefour de l'Estrie <> Du Chalumeau", "short_name": "4", "text_color": "#ffffff", "vehicle": {"icon": "//maps.gstatic.com/mapfiles/transit/iw2/6/bus2.png", "name": "Bus", "type": "BUS"}}, "num_stops": 36}, "travel_mode": "TRANSIT"}, {"distance": {"text": "1.6 km", "value": 1556}, "duration": {"text": "3 mins", "value": 160}, "end_location": {"lat": 45.4113272, "lng": -71.9454921}, "html_instructions": "Bus towards Station du C\u00e9gep", "polyline": {"points": "wsbtGbhdvLFACgAkAF@pAkCHe@@[DSBUHOFWDEBYNMJMNKPKR_@tAMZ_@p@SRg@d@oBpAWP{B{Io@iCOg@Se@Se@Uc@Q[c@m@kBmBUSWUkAqAiAmAe@g@}A}AoAsA_CeCGIi@u@Qa@O_@Oc@Kc@SkAGe@EqAAgB?o@?IP?"}, "start_location": {"lat": 45.402358, "lng": -71.952818}, "transit_details": {"arrival_stop": {"location": {"lat": 45.4113272, "lng": -71.9454921}, "name": "McGregor / Richard"}, "arrival_time": {"text": "2:38pm", "time_zone": "America/Toronto", "value": 1522780720}, "departure_stop": {"location": {"lat": 45.402358, "lng": -71.952818}, "name": "Carrefour de l'Estrie - Quai B"}, "departure_time": {"text": "2:36pm", "time_zone": "America/Toronto", "value": 1522780560}, "headsign": "Station du C\u00e9gep", "line": {"agencies": [{"name": "Soci\u00e9t\u00e9 de Transport de Sherbrooke", "phone": "1 (819) 564-2687", "url": "http://www.sts.qc.ca/"}], "color": "#1b5e20", "name": "Carrefour de l'Estrie <> Station du C\u00e9gep", "short_name": "12", "text_color": "#ffffff", "vehicle": {"icon": "//maps.gstatic.com/mapfiles/transit/iw2/6/bus2.png", "name": "Bus", "type": "BUS"}}, "num_stops": 6}, "travel_mode": "TRANSIT"}, {"distance": {"text": "31 m", "value": 31}, "duration": {"text": "1 min", "value": 24}, "end_location": {"lat": 45.411313, "lng": -71.945184}, "html_instructions": "Walk to McGregor / Richard", "polyline": {"points": "ykdtGhzbvLQ@Ao@V??O"}, "start_location": {"lat": 45.4113272, "lng": -71.9454921}, "steps": [{"distance": {"text": "19 m", "value": 19}, "duration": {"text": "1 min", "value": 14}, "end_location": {"lat": 45.4114253, "lng": -71.945257}, "html_instructions": "Head <b>east</b> on <b>Rue Richard</b> toward <b>Rue McGregor</b>", "polyline": {"points": "ykdtGhzbvLQ@Ao@"}, "start_location": {"lat": 45.4113272, "lng": -71.9454921}, "travel_mode": "WALKING"}, {"distance": {"text": "12 m", "value": 12}, "duration": {"text": "1 min", "value": 10}, "end_location": {"lat": 45.411313, "lng": -71.945184}, "html_instructions": "Turn <b>right</b> onto <b>Rue McGregor</b><div style=\"font-size:0.9em\">Destination will be on the left</div>", "maneuver": "turn-right", "polyline": {"points": "mldtGzxbvLV??O"}, "start_location": {"lat": 45.4114253, "lng": -71.945257}, "travel_mode": "WALKING"}], "travel_mode": "WALKING"}, {"distance": {"text": "3.3 km", "value": 3267}, "duration": {"text": "7 mins", "value": 414}, "end_location": {"lat": 45.423233, "lng": -71.964277}, "html_instructions": "Bus towards Plateau St-Joseph", "polyline": {"points": "ukdtGjxbvL?XeE@CCAB_@?oE?[?BaFDO@a@MkCQB]HiA`@MDuA~@uA|A_AzA{DrHi@v@q@v@u@j@e@Vg@Ta@Ls@Lw@FeUIsPGiAB@~LTx]LlFVpKn@bN@pAMv@Gx@EdBMbCMjAOfAXLz@ZTHb@L|@XZR^XdAhAKV"}, "start_location": {"lat": 45.411313, "lng": -71.945184}, "transit_details": {"arrival_stop": {"location": {"lat": 45.423233, "lng": -71.964277}, "name": "Centre de foires de Sherbrooke"}, "arrival_time": {"text": "2:59pm", "time_zone": "America/Toronto", "value": 1522781963}, "departure_stop": {"location": {"lat": 45.411313, "lng": -71.945184}, "name": "McGregor / Richard"}, "departure_time": {"text": "2:52pm", "time_zone": "America/Toronto", "value": 1522781549}, "headsign": "Plateau St-Joseph", "line": {"agencies": [{"name": "Soci\u00e9t\u00e9 de Transport de Sherbrooke", "phone": "1 (819) 564-2687", "url": "http://www.sts.qc.ca/"}], "color": "#ffea00", "name": "Universit\u00e9 Bishop's <> Plateau Saint-Joseph", "short_name": "11", "text_color": "#000000", "vehicle": {"icon": "//maps.gstatic.com/mapfiles/transit/iw2/6/bus2.png", "name": "Bus", "type": "BUS"}}, "num_stops": 6}, "travel_mode": "TRANSIT"}, {"distance": {"text": "79 m", "value": 79}, "duration": {"text": "1 min", "value": 57}, "end_location": {"lat": 45.4225888, "lng": -71.9648201}, "html_instructions": "Walk to 1600 Boulevard du Plateau-Saint-Joseph, Sherbrooke, QC J1L 0C8, Canada", "polyline": {"points": "evftGvofvLLOpBzB"}, "start_location": {"lat": 45.423233, "lng": -71.964277}, "steps": [{"distance": {"text": "79 m", "value": 79}, "duration": {"text": "1 min", "value": 57}, "end_location": {"lat": 45.4225888, "lng": -71.9648201}, "html_instructions": "Head <b>southwest</b> on <b>Boulevard du Plateau-Saint-Joseph</b>", "polyline": {"points": "evftGvofvLLOpBzB"}, "start_location": {"lat": 45.423233, "lng": -71.964277}, "travel_mode": "WALKING"}], "travel_mode": "WALKING"}], "traffic_speed_entry": [], "via_waypoint": []}], "overview_polyline": {"points": "{|btGxetuLxOGjA[LKHNGODCDGb@c@b@y@f@{Af@yAl@uAJO\\a@d@]|AtTGn@YzAEX?v@rAzLlBrKo@@u@LoF~A}@X}AZkBAGhA{LbIy@j@s@\\qI@qJC_CBHn@FTXh@r@tAzAfC@R|AtCw@dA]^OD{MnAaAmEMMMBqDrCy@\\}C`AXdCL~AHTPFPCLIDKB[k@kFaA\\aATOFUVWp@IFe@z@q@~@s@~@DFONpDpFfKdPPH~AfC^n@f@nA^hA^vAdFpPz@zB~AhCTZPz@@ZGj@Cl@T`Av@`DvAhErAxC~@~BHh@Fv@AxCTl@FJHDvA@rBBPDb@PJJZ`@Tf@T|@Fz@@lBB|BI~YGjUCxJIfXKXGjRKp`@?rEKzXC`TDrTA`CF|S~A`aAjCGBhAjACEkC@VG@FACgAkAF@pAqDJo@He@P]Hg@ZY`@k@hBm@lA{@x@gCbBkDeNc@mAi@iAu@iAaCaCsE}EuHaI{@wA_@cA_@oBGe@EqAAwC?IP?Q@Ao@V??O?XeE@E?oF?[?BaFDO@a@MkCQBgBj@cBdAuA|A_AzA{DrHi@v@q@v@u@j@mAl@uAZw@FeUIsPGiAB@~LTx]d@~Rn@bN@pAMv@Gx@ShF]rCtAh@x@V|@XZRdBbBKVLOpBzB"}, "summary": "", "warnings": ["Walking directions are in beta.    Use caution \u2013 This route may be missing sidewalks or pedestrian paths."], "waypoint_order": []}], "status": "OK"}