{"geocoded_waypoints": [{"geocoder_status": "OK", "place_id": "ChIJlTIswquzt0wRLH_04FarzWo", "types": ["establishment", "point_of_interest", "school"]}, {"geocoder_status": "OK", "place_id": "ChIJbf7mAXyzt0wRLhMg5l88IZ0", "types": ["bus_station", "establishment", "point_of_interest", "transit_station"]}], "routes": [{"bounds": {"northeast": {"lat": 45.4108449, "lng": -71.8742105}, "southwest": {"lat": 45.398762, "lng": -71.91843709999999}}, "copyrights": "Map data \u00a92018 Google", "fare": {"currency": "CAD", "text": "CA$3.30", "value": 3.3}, "legs": [{"arrival_time": {"text": "2:26pm", "time_zone": "America/Toronto", "value": 1522779977}, "departure_time": {"text": "1:57pm", "time_zone": "America/Toronto", "value": 1522778251}, "distance": {"text": "5.6 km", "value": 5572}, "duration": {"text": "29 mins", "value": 1726}, "end_address": "Sherbrooke, QC J1J 3A5, Canada", "end_location": {"lat": 45.4095666, "lng": -71.91843709999999}, "start_address": "655 Rue Papineau, Sherbrooke, QC J1E 1Y6, Canada", "start_location": {"lat": 45.4108449, "lng": -71.8742105}, "steps": [{"distance": {"text": "0.9 km", "value": 934}, "duration": {"text": "11 mins", "value": 664}, "end_location": {"lat": 45.409568, "lng": -71.883378}, "html_instructions": "Walk to \u00c9difice Expo-Sherbrooke", "polyline": {"points": "whdtGx|tuLd@pBfAtEr@tCp@hCJZFTHRDJj@`ALVHPt@tAkBh@_ErAb@|CDVDRJVJ\\Fd@Dh@NzE@jAD?H@D@HDHFFHDLZzB@NE@"}, "start_location": {"lat": 45.4108449, "lng": -71.8742105}, "steps": [{"distance": {"text": "0.4 km", "value": 408}, "duration": {"text": "5 mins", "value": 276}, "end_location": {"lat": 45.4089865, "lng": -71.8786681}, "html_instructions": "Head <b>southwest</b> on <b>Rue Papineau</b> toward <b>8e Avenue N</b>", "polyline": {"points": "whdtGx|tuLd@pBfAtEr@tCp@hCJZFTHRDJj@`ALVHPt@tA"}, "start_location": {"lat": 45.4108449, "lng": -71.8742105}, "travel_mode": "WALKING"}, {"distance": {"text": "0.2 km", "value": 175}, "duration": {"text": "2 mins", "value": 138}, "end_location": {"lat": 45.410491, "lng": -71.8793043}, "html_instructions": "Turn <b>right</b> onto <b>Rue Saint-Michel</b>", "maneuver": "turn-right", "polyline": {"points": "e}ctGtxuuLkBh@_ErA"}, "start_location": {"lat": 45.4089865, "lng": -71.8786681}, "travel_mode": "WALKING"}, {"distance": {"text": "0.3 km", "value": 256}, "duration": {"text": "3 mins", "value": 181}, "end_location": {"lat": 45.4099713, "lng": -71.8824613}, "html_instructions": "Turn <b>left</b>", "maneuver": "turn-left", "polyline": {"points": "qfdtGr|uuLb@|CDVDRJVJ\\Fd@Dh@NzE@jA"}, "start_location": {"lat": 45.410491, "lng": -71.8793043}, "travel_mode": "WALKING"}, {"distance": {"text": "0.1 km", "value": 95}, "duration": {"text": "1 min", "value": 69}, "end_location": {"lat": 45.409568, "lng": -71.883378}, "html_instructions": "Turn <b>left</b><div style=\"font-size:0.9em\">Destination will be on the right</div>", "maneuver": "turn-left", "polyline": {"points": "icdtGjpvuLD?H@D@HDHFFHDLZzB@NE@"}, "start_location": {"lat": 45.4099713, "lng": -71.8824613}, "travel_mode": "WALKING"}], "travel_mode": "WALKING"}, {"distance": {"text": "4.5 km", "value": 4513}, "duration": {"text": "16 mins", "value": 956}, "end_location": {"lat": 45.409355, "lng": -71.917312}, "html_instructions": "Bus towards Carrefour de l'Estrie", "polyline": {"points": "y`dtGbvvuLHEHZjIw@nCWNEtBA\\?`@p@JRDBDBBBH@r@^d@PvAt@^R~@`@XRJLTXrChHhBvEXl@DRBRnAxCDNDJnA|CRMx@_@b@S?B@F?B@B@B@@@B@@@@@@@@B@@?h@@@A@?@A@A?ABC?A@A?A@C?A?A@EAE?A?CAC?CK]cAf@c@Ry@^SLlIrSz@zCNj@rAzFPt@dAbEr@xCwD|BGBk@TA@k@`@a@\\cBfAoAz@UNQRoDxFmDnDKDURMNYZmAdAyKK{FG}FEm@AOvDMxEM|EA`@Gt@If@[vA?ZAN?lAD|F?^ErN?L?XAP?|D?jC@HCzDC|CA`J?BA~HM?"}, "start_location": {"lat": 45.409568, "lng": -71.883378}, "transit_details": {"arrival_stop": {"location": {"lat": 45.409355, "lng": -71.917312}, "name": "Prospect / Malouin"}, "arrival_time": {"text": "2:24pm", "time_zone": "America/Toronto", "value": 1522779871}, "departure_stop": {"location": {"lat": 45.409568, "lng": -71.883378}, "name": "\u00c9difice Expo-Sherbrooke"}, "departure_time": {"text": "2:08pm", "time_zone": "America/Toronto", "value": 1522778915}, "headsign": "Carrefour de l'Estrie", "line": {"agencies": [{"name": "Soci\u00e9t\u00e9 de Transport de Sherbrooke", "phone": "1 (819) 564-2687", "url": "http://www.sts.qc.ca/"}], "color": "#1b5e20", "name": "Carrefour de l'Estrie <> Station du C\u00e9gep", "short_name": "12", "text_color": "#ffffff", "vehicle": {"icon": "//maps.gstatic.com/mapfiles/transit/iw2/6/bus2.png", "name": "Bus", "type": "BUS"}}, "num_stops": 21}, "travel_mode": "TRANSIT"}, {"distance": {"text": "0.1 km", "value": 125}, "duration": {"text": "2 mins", "value": 105}, "end_location": {"lat": 45.4095666, "lng": -71.91843709999999}, "html_instructions": "Walk to Sherbrooke, QC J1J 3A5, Canada", "polyline": {"points": "o_dtGdj}uLL@A\\?l@ARAV@VBVJr@cAB"}, "start_location": {"lat": 45.409355, "lng": -71.917312}, "steps": [{"distance": {"text": "30 m", "value": 30}, "duration": {"text": "1 min", "value": 24}, "end_location": {"lat": 45.4092972, "lng": -71.9177002}, "html_instructions": "Head <b>west</b> on <b>Rue Prospect</b> toward <b>Rue Malouin</b>", "polyline": {"points": "o_dtGdj}uLL@A\\?l@"}, "start_location": {"lat": 45.409355, "lng": -71.917312}, "travel_mode": "WALKING"}, {"distance": {"text": "58 m", "value": 58}, "duration": {"text": "1 min", "value": 49}, "end_location": {"lat": 45.40923129999999, "lng": -71.9184226}, "html_instructions": "Slight <b>right</b> to stay on <b>Rue Prospect</b>", "maneuver": "turn-slight-right", "polyline": {"points": "c_dtGrl}uLARAV@VBVJr@"}, "start_location": {"lat": 45.4092972, "lng": -71.9177002}, "travel_mode": "WALKING"}, {"distance": {"text": "37 m", "value": 37}, "duration": {"text": "1 min", "value": 32}, "end_location": {"lat": 45.4095666, "lng": -71.91843709999999}, "html_instructions": "Turn <b>right</b> onto <b>Boulevard Jacques-Cartier N</b><div style=\"font-size:0.9em\">Destination will be on the right</div>", "maneuver": "turn-right", "polyline": {"points": "u~ctGbq}uLcAB"}, "start_location": {"lat": 45.40923129999999, "lng": -71.9184226}, "travel_mode": "WALKING"}], "travel_mode": "WALKING"}], "traffic_speed_entry": [], "via_waypoint": []}], "overview_polyline": {"points": "whdtGx|tuLlBfIdB~GRp@N^xB`EkH|Bh@tDPj@RbATdG@jAD?NBRLLV\\jCE@HEHZjIw@~C]rCAl@dAJFLDxAp@vBhA~@`@XR`@f@|F`OXl@DRBRnAxCJZnA|CRM|As@@JDLNLn@ADIBI?OMi@uDhBlIrSz@zCbBfHjCrK_E`Ck@Tm@b@eCdBeBjAaElGmDnDKDURg@j@mAdAyKKyNMm@AOvD[vLIvAe@~BAj@DjIErOAvF@tCGxIAdJA~HM?L@A\\A`A?n@NjAcAB"}, "summary": "", "warnings": ["Walking directions are in beta.    Use caution \u2013 This route may be missing sidewalks or pedestrian paths."], "waypoint_order": []}], "status": "OK"}