{"geocoded_waypoints": [{"geocoder_status": "OK", "partial_match": true, "place_id": "ChIJBUnsLhGzt0wRgJewKc9fr84", "types": ["establishment", "point_of_interest", "shopping_mall"]}, {"geocoder_status": "OK", "partial_match": true, "place_id": "ChIJeUJGDgyzt0wRpF6kOUfCkBQ", "types": ["establishment", "museum", "point_of_interest"]}], "routes": [{"bounds": {"northeast": {"lat": 45.40574600000001, "lng": -71.893658}, "southwest": {"lat": 45.3952868, "lng": -71.89867}}, "copyrights": "Map data \u00a92018 Google", "fare": {"currency": "CAD", "text": "CA$3.30", "value": 3.3}, "legs": [{"arrival_time": {"text": "2:03pm", "time_zone": "America/Toronto", "value": 1522778589}, "departure_time": {"text": "1:54pm", "time_zone": "America/Toronto", "value": 1522778097}, "distance": {"text": "1.6 km", "value": 1592}, "duration": {"text": "8 mins", "value": 492}, "end_address": "241 Rue Dufferin, Sherbrooke, QC J1H 4M3, Canada", "end_location": {"lat": 45.4052275, "lng": -71.8943439}, "start_address": "340 Rue Belv\u00e9d\u00e8re S, Sherbrooke, QC J1H 4B5, Canada", "start_location": {"lat": 45.3952868, "lng": -71.8947781}, "steps": [{"distance": {"text": "0.2 km", "value": 160}, "duration": {"text": "2 mins", "value": 122}, "end_location": {"lat": 45.395865, "lng": -71.895999}, "html_instructions": "Walk to Belv\u00e9d\u00e8re Sud (le Centre Sherbrooke)", "polyline": {"points": "qgatGj}xuLAp@GjCAd@Cb@cBC@O"}, "start_location": {"lat": 45.3952868, "lng": -71.8947781}, "steps": [{"distance": {"text": "0.1 km", "value": 104}, "duration": {"text": "1 min", "value": 87}, "end_location": {"lat": 45.3953668, "lng": -71.8961003}, "html_instructions": "Head <b>west</b> toward <b>Rue Belv\u00e9d\u00e8re S</b>", "polyline": {"points": "qgatGj}xuLAp@GjCAd@Cb@"}, "start_location": {"lat": 45.3952868, "lng": -71.8947781}, "travel_mode": "WALKING"}, {"distance": {"text": "56 m", "value": 56}, "duration": {"text": "1 min", "value": 35}, "end_location": {"lat": 45.395865, "lng": -71.895999}, "html_instructions": "Turn <b>right</b> onto <b>Rue Belv\u00e9d\u00e8re S</b><div style=\"font-size:0.9em\">Destination will be on the right</div>", "maneuver": "turn-right", "polyline": {"points": "ahatGreyuLcBC@O"}, "start_location": {"lat": 45.3953668, "lng": -71.8961003}, "travel_mode": "WALKING"}], "travel_mode": "WALKING"}, {"distance": {"text": "1.4 km", "value": 1367}, "duration": {"text": "6 mins", "value": 330}, "end_location": {"lat": 45.40574600000001, "lng": -71.89474299999999}, "html_instructions": "Bus towards Chardonnerets / Marika", "polyline": {"points": "ckatG~dyuL?Nu@@KDG?yCQgAAC?i@?KDu@^m@d@o@b@s@d@mEjCGBk@TA@k@`@a@\\cBfAoAz@UNYy@]u@c@s@sAqCCQAIcC}EsF}KU[s@\\IF}BpA_@^MNCBu@x@GM"}, "start_location": {"lat": 45.395865, "lng": -71.895999}, "transit_details": {"arrival_stop": {"location": {"lat": 45.40574600000001, "lng": -71.89474299999999}, "name": "Mus\u00e9e des Beaux-Arts de Sherbrooke"}, "arrival_time": {"text": "2:02pm", "time_zone": "America/Toronto", "value": 1522778550}, "departure_stop": {"location": {"lat": 45.395865, "lng": -71.895999}, "name": "Belv\u00e9d\u00e8re Sud (le Centre Sherbrooke)"}, "departure_time": {"text": "1:57pm", "time_zone": "America/Toronto", "value": 1522778220}, "headsign": "Chardonnerets / Marika", "line": {"agencies": [{"name": "Soci\u00e9t\u00e9 de Transport de Sherbrooke", "phone": "1 (819) 564-2687", "url": "http://www.sts.qc.ca/"}], "color": "#994500", "name": "Universit\u00e9 de Sherbrooke <> des Chardonnerets", "short_name": "9", "text_color": "#ffffff", "vehicle": {"icon": "//maps.gstatic.com/mapfiles/transit/iw2/6/bus2.png", "name": "Bus", "type": "BUS"}}, "num_stops": 7}, "travel_mode": "TRANSIT"}, {"distance": {"text": "65 m", "value": 65}, "duration": {"text": "1 min", "value": 47}, "end_location": {"lat": 45.4052275, "lng": -71.8943439}, "html_instructions": "Walk to 241 Rue Dufferin, Sherbrooke, QC J1H 4M3, Canada", "polyline": {"points": "}hctGb}xuLJRt@y@JMPSFG"}, "start_location": {"lat": 45.40574600000001, "lng": -71.89474299999999}, "steps": [{"distance": {"text": "65 m", "value": 65}, "duration": {"text": "1 min", "value": 47}, "end_location": {"lat": 45.4052275, "lng": -71.8943439}, "html_instructions": "Head <b>southeast</b> on <b>Rue Dufferin</b> toward <b>Rue Bank</b><div style=\"font-size:0.9em\">Destination will be on the right</div>", "polyline": {"points": "}hctGb}xuLJRt@y@JMPSFG"}, "start_location": {"lat": 45.40574600000001, "lng": -71.89474299999999}, "travel_mode": "WALKING"}], "travel_mode": "WALKING"}], "traffic_speed_entry": [], "via_waypoint": []}], "overview_polyline": {"points": "qgatGj}xuLOfGcBC@O?Nu@@KDG?yCQgAAm@?aAd@}AhAaGpDu@ZmA~@sDbCUNYy@aAiBsAqCCQeCgFsF}KU[}@d@}BpA_@^QRu@x@GMJRt@y@\\a@FG"}, "summary": "", "warnings": ["Walking directions are in beta.    Use caution \u2013 This route may be missing sidewalks or pedestrian paths."], "waypoint_order": []}], "status": "OK"}