{"geocoded_waypoints": [{"geocoder_status": "OK", "place_id": "ChIJhfR8J-myt0wRxVfQG1CXw0o", "types": ["bus_station", "establishment", "point_of_interest", "transit_station"]}, {"geocoder_status": "OK", "place_id": "ChIJ-9tiEU2yt0wRPn7WRCC51SE", "types": ["establishment", "park", "point_of_interest"]}], "routes": [{"bounds": {"northeast": {"lat": 45.416661, "lng": -71.841064}, "southwest": {"lat": 45.3903659, "lng": -71.884378}}, "copyrights": "Map data \u00a92018 Google", "fare": {"currency": "CAD", "text": "CA$3.30", "value": 3.3}, "legs": [{"arrival_time": {"text": "2:33pm", "time_zone": "America/Toronto", "value": 1522780425}, "departure_time": {"text": "1:56pm", "time_zone": "America/Toronto", "value": 1522778172}, "distance": {"text": "10.0 km", "value": 10050}, "duration": {"text": "38 mins", "value": 2253}, "end_address": "Des Jardins-Fleuris, 1245 Rue Papineau, Sherbrooke, QC J1E 4C4, Canada", "end_location": {"lat": 45.415282, "lng": -71.86224899999999}, "start_address": "Sherbrooke, QC J1G 2A2, Canada", "start_location": {"lat": 45.3904645, "lng": -71.86508909999999}, "steps": [{"distance": {"text": "1.5 km", "value": 1469}, "duration": {"text": "17 mins", "value": 1035}, "end_location": {"lat": 45.397204, "lng": -71.87884199999999}, "html_instructions": "Walk to Bowen Sud / Woodward", "polyline": {"points": "ki`tGxcsuLLvWBzOqCtEkBbDmBrCy@tA}A`BcGlGyAfAoDbCmAx@UL[Vs@f@kClBCK"}, "start_location": {"lat": 45.3904645, "lng": -71.86508909999999}, "steps": [{"distance": {"text": "0.5 km", "value": 520}, "duration": {"text": "6 mins", "value": 372}, "end_location": {"lat": 45.3903659, "lng": -71.8717482}, "html_instructions": "Head <b>west</b> on <b>Rue de Caen</b> toward <b>Rue Walsh</b>", "polyline": {"points": "ki`tGxcsuLLvWBzO"}, "start_location": {"lat": 45.3904645, "lng": -71.86508909999999}, "travel_mode": "WALKING"}, {"distance": {"text": "0.9 km", "value": 949}, "duration": {"text": "11 mins", "value": 663}, "end_location": {"lat": 45.397204, "lng": -71.87884199999999}, "html_instructions": "Turn <b>right</b> onto <b>Rue Bowen S</b><div style=\"font-size:0.9em\">Destination will be on the right</div>", "maneuver": "turn-right", "polyline": {"points": "yh`tGlmtuLqCtEkBbDmBrCy@tA}A`BcGlGyAfAoDbCmAx@UL[Vs@f@kClBCK"}, "start_location": {"lat": 45.3903659, "lng": -71.8717482}, "travel_mode": "WALKING"}], "travel_mode": "WALKING"}, {"distance": {"text": "8.6 km", "value": 8581}, "duration": {"text": "20 mins", "value": 1217}, "end_location": {"lat": 45.415282, "lng": -71.86224899999999}, "html_instructions": "Bus towards 13e Avenue / 24-Juin", "polyline": {"points": "osatGvyuuLBJi@`@_DnCOs@aAp@S?UKK]FCNANCFGHKBM@QAQEGIAK?E@GBQFGBKLAJ@FHZFHJ\\TJR?`Aq@Nr@eA~@{CnCKFyBnBOLoC|BOXS\\IXYr@a@p@ABu@z@UT{A~@cAr@oAr@OJ]uA_@_BAODiAk@\\eBbAiC|A_@TwBiAe@Qs@_@EOCGCEGIo@kAIKIKGOWi@yAqCCEMCsBiD[s@Wc@AEGUG_@AOAyAG{@?wE?eL?cF?mL?A?aF@qD?Y?{DCgNAaGAiGAiAAUKaBEi@McAKy@uA}HAGEWOkA?GGo@EaACw@Aq@@s@RmVB{ABaCBaC?o@DYLaBAwCAE?AAs@Eu@_@aEaAcD}@mEQ_AqAsGaBeIcAoFy@mFOcAeAiIwB`ASPa@dAkBzFdB~BLj@Ct@@bAH`ARlAf@dAJP@D@B@?@A@AAECAC@KQg@eASmAIcAAcABs@Mk@yAqBIMhB{F`@eARQvBcAn@|ETlBfApHdApF`B`IjAdGKHC@cAh@e@Pe@PA?WDD~GgBBM`AAL@fE?T{JEs@@g@Ac@Ea@IaEk@[Cg@Cg@Ag@?aBLsBRFf@DZPr@FN@D\\f@|@bALPJNHRHVDXDT@X?XAVCXKl@KVIPMPMNKJc@\\MNKPKROn@ETCr@@VBVBXNx@Rz@b@tAdA`DFRHZF\\Fz@@b@Ax@Cl@GjB?zA@f@JvAHf@Hf@~@lDIF"}, "start_location": {"lat": 45.397204, "lng": -71.87884199999999}, "transit_details": {"arrival_stop": {"location": {"lat": 45.415282, "lng": -71.86224899999999}, "name": "Parc des Jardins-Fleuris"}, "arrival_time": {"text": "2:33pm", "time_zone": "America/Toronto", "value": 1522780425}, "departure_stop": {"location": {"lat": 45.397204, "lng": -71.87884199999999}, "name": "Bowen Sud / Woodward"}, "departure_time": {"text": "2:13pm", "time_zone": "America/Toronto", "value": 1522779208}, "headsign": "13e Avenue / 24-Juin", "line": {"agencies": [{"name": "Soci\u00e9t\u00e9 de Transport de Sherbrooke", "phone": "1 (819) 564-2687", "url": "http://www.sts.qc.ca/"}], "color": "#80deea", "name": "Carrefour de l'Estrie <> 13e avenue - du 24-Juin", "short_name": "57", "text_color": "#000000", "vehicle": {"icon": "//maps.gstatic.com/mapfiles/transit/iw2/6/bus2.png", "name": "Bus", "type": "BUS"}}, "num_stops": 36}, "travel_mode": "TRANSIT"}], "traffic_speed_entry": [], "via_waypoint": []}], "overview_polyline": {"points": "ki`tGxcsuLLvWBzO}FxJgDhFaJnJiGjEcBfAoA~@kClBCKBJi@`@_DnCOs@aAp@S?UKK]VEVKLY?c@EGIAQ@YJSP?RPd@J\\TJR?`Aq@Nr@eA~@gDvCiC|BoC|BOX]v@Yr@a@p@w@~@qBtAsCfBOJ]uAa@oBDiAk@\\oF`D_@TwBiAyAq@IWeAgBcCwECEMCsBiD[s@Yi@Ou@CiBG{@?wE?iS?oL@iREiVCsIMwBSmBaBwJG_@OsAMqBEiBTaXJoKR{BC}CAu@e@wFaAcD}@mEcBsIeDuPiAqHeAiIwB`ASPa@dAkBzFdB~BLj@Ct@@bAH`ARlAf@dALVBBBCEGC@KQg@eASmAIcAAcABs@Mk@cB_CjCaIRQvBcAdAjIfApHdApFlDfQyBfAg@PWDD~GgBBM`A?tE?T{JE{A?cH_AoAEiCLsBRFf@VnAHT\\f@|@bAX`@Rj@Jn@@r@Ep@WdAWb@YZq@l@Wd@UdAAjAFp@b@tBzBfHNxA?|AKxC@bCT~BhAtEIF"}, "summary": "", "warnings": ["Walking directions are in beta.    Use caution \u2013 This route may be missing sidewalks or pedestrian paths."], "waypoint_order": []}], "status": "OK"}