{"geocoded_waypoints": [{"geocoder_status": "OK", "place_id": "ChIJ2QHYVEuzt0wRCkczUGODyEA", "types": ["establishment", "point_of_interest", "university"]}, {"geocoder_status": "OK", "partial_match": true, "place_id": "ChIJeUJGDgyzt0wRpF6kOUfCkBQ", "types": ["establishment", "museum", "point_of_interest"]}], "routes": [{"bounds": {"northeast": {"lat": 45.40574600000001, "lng": -71.893658}, "southwest": {"lat": 45.3740865, "lng": -71.93311039999999}}, "copyrights": "Map data \u00a92018 Google", "fare": {"currency": "CAD", "text": "CA$3.30", "value": 3.3}, "legs": [{"arrival_time": {"text": "2:33pm", "time_zone": "America/Toronto", "value": 1522780389}, "departure_time": {"text": "2:09pm", "time_zone": "America/Toronto", "value": 1522778944}, "distance": {"text": "5.8 km", "value": 5820}, "duration": {"text": "24 mins", "value": 1445}, "end_address": "241 Rue Dufferin, Sherbrooke, QC J1H 4M3, Canada", "end_location": {"lat": 45.4052275, "lng": -71.8943439}, "start_address": "2500 Boulevard de l'Universit\u00e9, Sherbrooke, QC J1K 2R1, Canada", "start_location": {"lat": 45.3740865, "lng": -71.93285139999999}, "steps": [{"distance": {"text": "0.9 km", "value": 940}, "duration": {"text": "11 mins", "value": 689}, "end_location": {"lat": 45.381401, "lng": -71.930557}, "html_instructions": "Walk to boul. de l'Universit\u00e9 / Prunier", "polyline": {"points": "ac}sGhk`vLu@B_EF]@]@W?WBi@@qAB_@@aAHu@FM?YBA?G?o@@]AM?kGE_CBC_@AWEQIMGGMGaAk@GEEIEKGSEWAWAKAa@GWGUKSGOSEcA]@OAGOSEAM@Ac@PQ"}, "start_location": {"lat": 45.3740865, "lng": -71.93285139999999}, "steps": [{"distance": {"text": "0.7 km", "value": 651}, "duration": {"text": "8 mins", "value": 466}, "end_location": {"lat": 45.3799343, "lng": -71.93308569999999}, "html_instructions": "Head <b>north</b> on <b>Chemin de Sainte-Catherine</b>/<b>QC-216 E</b>", "polyline": {"points": "ac}sGhk`vLu@B_EF]@]@W?WBi@@qAB_@@aAHu@FM?YBA?G?o@@]AM?kGE_CB"}, "start_location": {"lat": 45.3740865, "lng": -71.93285139999999}, "travel_mode": "WALKING"}, {"distance": {"text": "0.2 km", "value": 192}, "duration": {"text": "3 mins", "value": 157}, "end_location": {"lat": 45.3808612, "lng": -71.9312252}, "html_instructions": "Turn <b>right</b> onto <b>Voie 12</b>", "maneuver": "turn-right", "polyline": {"points": "qg~sGxl`vLC_@AWEQIMGGMGaAk@GEEIEKGSEWAWAKAa@GWGUKSGO"}, "start_location": {"lat": 45.3799343, "lng": -71.93308569999999}, "travel_mode": "WALKING"}, {"distance": {"text": "83 m", "value": 83}, "duration": {"text": "1 min", "value": 55}, "end_location": {"lat": 45.3814774, "lng": -71.9308346}, "html_instructions": "Slight <b>left</b> to stay on <b>Voie 12</b>", "maneuver": "turn-slight-left", "polyline": {"points": "km~sGda`vLSEcA]@OAGOSEAM@"}, "start_location": {"lat": 45.3808612, "lng": -71.9312252}, "travel_mode": "WALKING"}, {"distance": {"text": "14 m", "value": 14}, "duration": {"text": "1 min", "value": 11}, "end_location": {"lat": 45.381401, "lng": -71.930557}, "html_instructions": "Turn <b>right</b> onto <b>Boulevard de l'Universit\u00e9</b>/<b>QC-216 E</b>", "maneuver": "turn-right", "polyline": {"points": "gq~sGt~_vLAc@PQ"}, "start_location": {"lat": 45.3814774, "lng": -71.9308346}, "travel_mode": "WALKING"}], "travel_mode": "WALKING"}, {"distance": {"text": "4.8 km", "value": 4815}, "duration": {"text": "12 mins", "value": 717}, "end_location": {"lat": 45.40574600000001, "lng": -71.89474299999999}, "html_instructions": "Bus towards Chardonnerets / Marika", "polyline": {"points": "wp~sG~|_vLK@AOC_@Io@U}A_AwDm@wBKYSo@c@kASm@Yo@]q@]o@g@s@m@}@[m@OQUQUUMMc@e@i@c@iAy@m@a@SI[OqAg@iCu@YMWIWOOUK[E[CQ@}C@{B@OBmHBmE@iA?w@EwB?s@?I?gA?eC@iBAaB@gB@iHBoA@sC@[?C?E@Y?UAIBs@@IDeA?_@EeAG_@Qy@AAK_@oAaCc@s@uB}Dg@eAgA}B}@cC]o@IMWi@e@w@e@s@CG{@wAq@kAYg@IKO[{@oAIOgAmBOUQ[uCmEo@aAc@}@m@oBCOEQ[iAUgAIo@i@qCAEI]AICMSq@Sm@_@mA]}@e@{A}@oCWA]IsCKkA?u@@KDG?yCQgAAC?i@?KDu@^m@d@o@b@s@d@mEjCGBk@TA@k@`@a@\\cBfAoAz@UNYy@]u@c@s@sAqCCQAIcC}EsF}KU[s@\\IF}BpA_@^MNCBu@x@GM"}, "start_location": {"lat": 45.381401, "lng": -71.930557}, "transit_details": {"arrival_stop": {"location": {"lat": 45.40574600000001, "lng": -71.89474299999999}, "name": "Mus\u00e9e des Beaux-Arts de Sherbrooke"}, "arrival_time": {"text": "2:32pm", "time_zone": "America/Toronto", "value": 1522780350}, "departure_stop": {"location": {"lat": 45.381401, "lng": -71.930557}, "name": "boul. de l'Universit\u00e9 / Prunier"}, "departure_time": {"text": "2:20pm", "time_zone": "America/Toronto", "value": 1522779633}, "headsign": "Chardonnerets / Marika", "line": {"agencies": [{"name": "Soci\u00e9t\u00e9 de Transport de Sherbrooke", "phone": "1 (819) 564-2687", "url": "http://www.sts.qc.ca/"}], "color": "#994500", "name": "Universit\u00e9 de Sherbrooke <> des Chardonnerets", "short_name": "9", "text_color": "#ffffff", "vehicle": {"icon": "//maps.gstatic.com/mapfiles/transit/iw2/6/bus2.png", "name": "Bus", "type": "BUS"}}, "num_stops": 20}, "travel_mode": "TRANSIT"}, {"distance": {"text": "65 m", "value": 65}, "duration": {"text": "1 min", "value": 47}, "end_location": {"lat": 45.4052275, "lng": -71.8943439}, "html_instructions": "Walk to 241 Rue Dufferin, Sherbrooke, QC J1H 4M3, Canada", "polyline": {"points": "}hctGb}xuLJRt@y@JMPSFG"}, "start_location": {"lat": 45.40574600000001, "lng": -71.89474299999999}, "steps": [{"distance": {"text": "65 m", "value": 65}, "duration": {"text": "1 min", "value": 47}, "end_location": {"lat": 45.4052275, "lng": -71.8943439}, "html_instructions": "Head <b>southeast</b> on <b>Rue Dufferin</b> toward <b>Rue Bank</b><div style=\"font-size:0.9em\">Destination will be on the right</div>", "polyline": {"points": "}hctGb}xuLJRt@y@JMPSFG"}, "start_location": {"lat": 45.40574600000001, "lng": -71.89474299999999}, "travel_mode": "WALKING"}], "travel_mode": "WALKING"}], "traffic_speed_entry": [], "via_waypoint": []}], "overview_polyline": {"points": "ac}sGhk`vL}MXeDRsADk@AkGE_CBEw@O_@_BaAKUMk@Cc@Iy@Si@GOSEcA]@OQ[S?Ac@PQK@AOMoAU}A_AwDy@qCw@{Bm@}A{@aBuAqBk@_Ak@g@q@s@sB}AaAk@mBw@cDcAo@YOUK[Im@HwQDwGEoD?kGB}QFcG?_AJcDEeAYyAMa@sBuD}CcGgA}B}@cCg@}@}@aBwC_FoB_DsBoDeEoGc@}@m@oBIa@[iAUgAs@aEKc@EWg@_B}@kCcBkFWA]IsCKkA?u@@KDaDQkAAi@?KDu@^m@d@cBhAuEnCk@Tm@b@eCdBeBjAw@oBwBeEE[wJ{RU[s@\\gCxAm@n@y@|@GMJR`AgAX["}, "summary": "", "warnings": ["Walking directions are in beta.    Use caution \u2013 This route may be missing sidewalks or pedestrian paths."], "waypoint_order": []}], "status": "OK"}