{"geocoded_waypoints": [{"geocoder_status": "OK", "place_id": "ChIJczwxWwWzt0wRzb4KUd8rLG0", "types": ["bus_station", "establishment", "point_of_interest", "transit_station"]}, {"geocoder_status": "OK", "partial_match": true, "place_id": "ChIJUYmzbQizt0wRh_u4rIJuNrg", "types": ["establishment", "point_of_interest", "school"]}], "routes": [{"bounds": {"northeast": {"lat": 45.4074751, "lng": -71.885093}, "southwest": {"lat": 45.400363, "lng": -71.88919}}, "copyrights": "Map data \u00a92018 Google", "fare": {"currency": "CAD", "text": "CA$3.30", "value": 3.3}, "legs": [{"arrival_time": {"text": "2:01pm", "time_zone": "America/Toronto", "value": 1522778499}, "departure_time": {"text": "1:55pm", "time_zone": "America/Toronto", "value": 1522778151}, "distance": {"text": "1.1 km", "value": 1106}, "duration": {"text": "6 mins", "value": 348}, "end_address": "200 Rue Kennedy N, Sherbrooke, QC J1E 2E7, Canada", "end_location": {"lat": 45.4074751, "lng": -71.886115}, "start_address": "80 Rue du D\u00e9p\u00f4t, Sherbrooke, QC J1H 5G1, Canada", "start_location": {"lat": 45.400363, "lng": -71.88848039999999}, "steps": [{"distance": {"text": "93 m", "value": 93}, "duration": {"text": "1 min", "value": 69}, "end_location": {"lat": 45.401253, "lng": -71.888683}, "html_instructions": "Walk to Station du D\u00e9p\u00f4t - Quai F", "polyline": {"points": "ggbtG~uwuL{@\\GBULQFC@o@DQW"}, "start_location": {"lat": 45.400363, "lng": -71.88848039999999}, "steps": [{"distance": {"text": "40 m", "value": 40}, "duration": {"text": "1 min", "value": 30}, "end_location": {"lat": 45.40070170000001, "lng": -71.8886495}, "html_instructions": "Head <b>north</b> on <b>Rue du D\u00e9p\u00f4t</b>", "polyline": {"points": "ggbtG~uwuL{@\\GB"}, "start_location": {"lat": 45.400363, "lng": -71.88848039999999}, "travel_mode": "WALKING"}, {"distance": {"text": "53 m", "value": 53}, "duration": {"text": "1 min", "value": 39}, "end_location": {"lat": 45.401253, "lng": -71.888683}, "html_instructions": "Slight <b>left</b> to stay on <b>Rue du D\u00e9p\u00f4t</b>", "maneuver": "turn-slight-left", "polyline": {"points": "kibtG`wwuLULQFC@o@DQW"}, "start_location": {"lat": 45.40070170000001, "lng": -71.8886495}, "travel_mode": "WALKING"}], "travel_mode": "WALKING"}, {"distance": {"text": "0.7 km", "value": 746}, "duration": {"text": "1 min", "value": 74}, "end_location": {"lat": 45.405955, "lng": -71.88662}, "html_instructions": "Bus towards 13e Avenue / 24-Juin", "polyline": {"points": "ylbtGfwwuLF^]Pc@Ry@^oA}CI[m@uAc@eAKSQCYm@iEwKcAp@mEpCm@b@SPIJOVQ^KK"}, "start_location": {"lat": 45.401253, "lng": -71.888683}, "transit_details": {"arrival_stop": {"location": {"lat": 45.405955, "lng": -71.88662}, "name": "Bowen Nord / Morkill"}, "arrival_time": {"text": "1:58pm", "time_zone": "America/Toronto", "value": 1522778294}, "departure_stop": {"location": {"lat": 45.401253, "lng": -71.888683}, "name": "Station du D\u00e9p\u00f4t - Quai F"}, "departure_time": {"text": "1:57pm", "time_zone": "America/Toronto", "value": 1522778220}, "headsign": "13e Avenue / 24-Juin", "line": {"agencies": [{"name": "Soci\u00e9t\u00e9 de Transport de Sherbrooke", "phone": "1 (819) 564-2687", "url": "http://www.sts.qc.ca/"}], "color": "#1b5e20", "name": "Du Manoir <> 13e avenue - du 24-Juin", "short_name": "55", "text_color": "#ffffff", "vehicle": {"icon": "//maps.gstatic.com/mapfiles/transit/iw2/6/bus2.png", "name": "Bus", "type": "BUS"}}, "num_stops": 3}, "travel_mode": "TRANSIT"}, {"distance": {"text": "0.3 km", "value": 267}, "duration": {"text": "3 mins", "value": 204}, "end_location": {"lat": 45.4074751, "lng": -71.886115}, "html_instructions": "Walk to 200 Rue Kennedy N, Sherbrooke, QC J1E 2E7, Canada", "polyline": {"points": "gjctGjjwuLFFELSn@GMWa@KIa@Ou@U}Av@s@\\?{@EgBAB"}, "start_location": {"lat": 45.405955, "lng": -71.88662}, "steps": [{"distance": {"text": "29 m", "value": 29}, "duration": {"text": "1 min", "value": 20}, "end_location": {"lat": 45.40604889999999, "lng": -71.8869728}, "html_instructions": "Head <b>northwest</b> on <b>Rue Bowen N</b> toward <b>Rue Morkill</b>", "polyline": {"points": "gjctGjjwuLFFELSn@"}, "start_location": {"lat": 45.405955, "lng": -71.88662}, "travel_mode": "WALKING"}, {"distance": {"text": "0.2 km", "value": 173}, "duration": {"text": "2 mins", "value": 135}, "end_location": {"lat": 45.407436, "lng": -71.88692449999999}, "html_instructions": "Turn <b>right</b> onto <b>Rue Morkill</b>", "maneuver": "turn-right", "polyline": {"points": "yjctGplwuLGMWa@KIa@Ou@U}Av@s@\\"}, "start_location": {"lat": 45.40604889999999, "lng": -71.8869728}, "travel_mode": "WALKING"}, {"distance": {"text": "65 m", "value": 65}, "duration": {"text": "1 min", "value": 49}, "end_location": {"lat": 45.4074751, "lng": -71.886115}, "html_instructions": "Turn <b>right</b> onto <b>Rue Mont-Plaisant</b><div style=\"font-size:0.9em\">Destination will be on the right</div>", "maneuver": "turn-right", "polyline": {"points": "osctGflwuL?{@EgBAB"}, "start_location": {"lat": 45.407436, "lng": -71.88692449999999}, "travel_mode": "WALKING"}], "travel_mode": "WALKING"}], "traffic_speed_entry": [], "via_waypoint": []}], "overview_polyline": {"points": "ggbtG~uwuLkBv@s@FQWF^aAd@y@^oA}Cw@qBo@yAQCYm@iEwKcAp@{FtD]\\a@v@KKFFY|@_@o@m@Yu@U}Av@s@\\?{@GcB"}, "summary": "", "warnings": ["Walking directions are in beta.    Use caution \u2013 This route may be missing sidewalks or pedestrian paths."], "waypoint_order": []}], "status": "OK"}