{"geocoded_waypoints": [{"geocoder_status": "OK", "partial_match": true, "place_id": "ChIJ3zHB6mlLtkwRG7uBUS0kS18", "types": ["establishment", "point_of_interest", "school"]}, {"geocoder_status": "OK", "place_id": "ChIJbf7mAXyzt0wRLhMg5l88IZ0", "types": ["bus_station", "establishment", "point_of_interest", "transit_station"]}], "routes": [{"bounds": {"northeast": {"lat": 45.4095666, "lng": -71.91760359999999}, "southwest": {"lat": 45.3638068, "lng": -71.973657}}, "copyrights": "Map data \u00a92018 Google", "fare": {"currency": "CAD", "text": "CA$3.30", "value": 3.3}, "legs": [{"arrival_time": {"text": "2:31pm", "time_zone": "America/Toronto", "value": 1522780290}, "departure_time": {"text": "1:48pm", "time_zone": "America/Toronto", "value": 1522777736}, "distance": {"text": "10.7 km", "value": 10671}, "duration": {"text": "43 mins", "value": 2554}, "end_address": "Sherbrooke, QC J1J 3A5, Canada", "end_location": {"lat": 45.4095666, "lng": -71.91843709999999}, "start_address": "700, rue Andr\u00e9-Mathieu, Sherbrooke, QC J1N 0Z9, Canada", "start_location": {"lat": 45.3640116, "lng": -71.973657}, "steps": [{"distance": {"text": "0.8 km", "value": 751}, "duration": {"text": "8 mins", "value": 509}, "end_location": {"lat": 45.368645, "lng": -71.967745}, "html_instructions": "Walk to De Charlemagne / Bertrand-Fabi", "polyline": {"points": "ad{sGjjhvLRuARw@cAu@}B{A_Aq@u@g@aAo@cAw@eAcAiAuAiAeBuA{CIQcAoBm@iAe@m@k@o@GGELB@"}, "start_location": {"lat": 45.3640116, "lng": -71.973657}, "steps": [{"distance": {"text": "60 m", "value": 60}, "duration": {"text": "1 min", "value": 39}, "end_location": {"lat": 45.3638068, "lng": -71.9729463}, "html_instructions": "Head <b>east</b> on <b>Rue Andr\u00e9-Mathieu</b> toward <b>Rue Bertrand-Fabi</b>", "polyline": {"points": "ad{sGjjhvLRuARw@"}, "start_location": {"lat": 45.3640116, "lng": -71.973657}, "travel_mode": "WALKING"}, {"distance": {"text": "0.7 km", "value": 685}, "duration": {"text": "8 mins", "value": 460}, "end_location": {"lat": 45.368627, "lng": -71.96766389999999}, "html_instructions": "Turn <b>left</b> onto <b>Rue Bertrand-Fabi</b>", "maneuver": "turn-left", "polyline": {"points": "yb{sG|ehvLcAu@}B{A_Aq@u@g@aAo@cAw@eAcAiAuAiAeBuA{CIQcAoBm@iAe@m@k@o@GG"}, "start_location": {"lat": 45.3638068, "lng": -71.9729463}, "travel_mode": "WALKING"}, {"distance": {"text": "6 m", "value": 6}, "duration": {"text": "1 min", "value": 10}, "end_location": {"lat": 45.368645, "lng": -71.967745}, "html_instructions": "Turn <b>left</b> onto <b>Rue de Charlemagne</b><div style=\"font-size:0.9em\">Destination will be on the left</div>", "maneuver": "turn-left", "polyline": {"points": "}`|sGzdgvLELB@"}, "start_location": {"lat": 45.368627, "lng": -71.96766389999999}, "travel_mode": "WALKING"}], "travel_mode": "WALKING"}, {"distance": {"text": "6.4 km", "value": 6353}, "duration": {"text": "14 mins", "value": 863}, "end_location": {"lat": 45.40227, "lng": -71.952806}, "html_instructions": "Bus towards Carrefour de l'Estrie", "polyline": {"points": "_a|sGjegvLIGHSyKqJyBcByAgAqHS{AEYEWOQEq@]uBw@MAA?QEWKICCAOCUCi@ESCwAG}@@]Bo@F@rAB~A?h@AVC^G`@E^K^IXEFGNkAjCuAtC{@jBO`@M`@Kb@Ib@MjAC`@EtBA`A?X@t@_C?MAIEKGOSGQ_@s@}@oBcAqBMUaGgMyDcIc@eAEIAI?QBm@FyAByABa@B[mDy@}Cw@SCe@?SDSFQJKHSP_@f@UX}@kBg@eA}@cBa@m@gAuAkAiAg@c@[SMGKI{N}Is@e@UM_Au@uAyACEAAe@i@Q}@EU?I?M@UBWFSJSLONKd@Od@KR?PDPHNPHTHVBX?ZCXETKTMNMJ{CnAoXlIsEdAsAToALyf@bCi@?g@CSCQEQGQKOKOMMQKSIUGUGWCYAm@@c@LeA@GJSHONQNMLKRILELCtCQl@Gr@E\\AAWIkF@OAI?]Cg@KqHMeIpBGBhAjACCsBH?"}, "start_location": {"lat": 45.368645, "lng": -71.967745}, "transit_details": {"arrival_stop": {"location": {"lat": 45.40227, "lng": -71.952806}, "name": "Carrefour de l'Estrie - Quai A"}, "arrival_time": {"text": "2:12pm", "time_zone": "America/Toronto", "value": 1522779120}, "departure_stop": {"location": {"lat": 45.368645, "lng": -71.967745}, "name": "De Charlemagne / Bertrand-Fabi"}, "departure_time": {"text": "1:57pm", "time_zone": "America/Toronto", "value": 1522778257}, "headsign": "Carrefour de l'Estrie", "line": {"agencies": [{"name": "Soci\u00e9t\u00e9 de Transport de Sherbrooke", "phone": "1 (819) 564-2687", "url": "http://www.sts.qc.ca/"}], "color": "#1a237e", "name": "Station du C\u00e9gep <> Place Dussault", "short_name": "17", "text_color": "#ffffff", "vehicle": {"icon": "//maps.gstatic.com/mapfiles/transit/iw2/6/bus2.png", "name": "Bus", "type": "BUS"}}, "num_stops": 16}, "travel_mode": "TRANSIT"}, {"distance": {"text": "1 m", "value": 0}, "duration": {"text": "1 min", "value": 0}, "end_location": {"lat": 45.40227, "lng": -71.952806}, "html_instructions": "Walk to Carrefour de l'Estrie - Quai A", "polyline": {"points": "esbtG`hdvL"}, "start_location": {"lat": 45.40227, "lng": -71.952806}, "steps": [{"distance": {"text": "1 m", "value": 0}, "duration": {"text": "1 min", "value": 0}, "end_location": {"lat": 45.40227, "lng": -71.952806}, "polyline": {"points": "esbtG`hdvL"}, "start_location": {"lat": 45.40227, "lng": -71.952806}, "travel_mode": "WALKING"}], "travel_mode": "WALKING"}, {"distance": {"text": "2.9 km", "value": 2859}, "duration": {"text": "6 mins", "value": 360}, "end_location": {"lat": 45.403611, "lng": -71.917847}, "html_instructions": "Bus towards Chalumeau / Galvin", "polyline": {"points": "esbtG`hdvLI?CgAkAFc@eTAcAoBDGcBMuISwNCwBAsB?q@A]?EA_@?AAm@CwB?cKCaZ?YDyRH}_@BkPDuQ@i@EkE?_D@[?k@?wAGY?GP@"}, "start_location": {"lat": 45.40227, "lng": -71.952806}, "transit_details": {"arrival_stop": {"location": {"lat": 45.403611, "lng": -71.917847}, "name": "boul. Jacques-Cartier Nord / boul. de Portland"}, "arrival_time": {"text": "2:22pm", "time_zone": "America/Toronto", "value": 1522779720}, "departure_stop": {"location": {"lat": 45.40227, "lng": -71.952806}, "name": "Carrefour de l'Estrie - Quai A"}, "departure_time": {"text": "2:16pm", "time_zone": "America/Toronto", "value": 1522779360}, "headsign": "Chalumeau / Galvin", "line": {"agencies": [{"name": "Soci\u00e9t\u00e9 de Transport de Sherbrooke", "phone": "1 (819) 564-2687", "url": "http://www.sts.qc.ca/"}], "color": "#9e9e9e", "name": "Carrefour de l'Estrie <> Du Chalumeau", "short_name": "4", "text_color": "#ffffff", "vehicle": {"icon": "//maps.gstatic.com/mapfiles/transit/iw2/6/bus2.png", "name": "Bus", "type": "BUS"}}, "num_stops": 10}, "travel_mode": "TRANSIT"}, {"distance": {"text": "0.7 km", "value": 708}, "duration": {"text": "10 mins", "value": 574}, "end_location": {"lat": 45.4095666, "lng": -71.91843709999999}, "html_instructions": "Walk to Sherbrooke, QC J1J 3A5, Canada", "polyline": {"points": "q{btGpm}uLQFCQ?g@A?eA`B?NK?}@rAaD@yCAsCC}@AEEuKUQ?cAB"}, "start_location": {"lat": 45.403611, "lng": -71.917847}, "steps": [{"distance": {"text": "23 m", "value": 23}, "duration": {"text": "1 min", "value": 22}, "end_location": {"lat": 45.4037219, "lng": -71.9175992}, "html_instructions": "Head <b>east</b> on <b>Boul de Portland</b>", "polyline": {"points": "q{btGpm}uLQFCQ?g@"}, "start_location": {"lat": 45.403611, "lng": -71.917847}, "travel_mode": "WALKING"}, {"distance": {"text": "55 m", "value": 55}, "duration": {"text": "1 min", "value": 45}, "end_location": {"lat": 45.4040767, "lng": -71.91808850000001}, "html_instructions": "Turn <b>left</b> toward <b>Boulevard Jacques-Cartier N</b>", "maneuver": "turn-left", "polyline": {"points": "g|btG~k}uLA?eA`B"}, "start_location": {"lat": 45.4037219, "lng": -71.9175992}, "travel_mode": "WALKING"}, {"distance": {"text": "6 m", "value": 6}, "duration": {"text": "1 min", "value": 4}, "end_location": {"lat": 45.4040772, "lng": -71.9181672}, "html_instructions": "Turn <b>left</b> toward <b>Boulevard Jacques-Cartier N</b>", "maneuver": "turn-left", "polyline": {"points": "o~btG`o}uL?N"}, "start_location": {"lat": 45.4040767, "lng": -71.91808850000001}, "travel_mode": "WALKING"}, {"distance": {"text": "0.3 km", "value": 347}, "duration": {"text": "5 mins", "value": 275}, "end_location": {"lat": 45.4070776, "lng": -71.9185589}, "html_instructions": "Turn <b>right</b> onto <b>Boulevard Jacques-Cartier N</b>", "maneuver": "turn-right", "polyline": {"points": "o~btGpo}uLK?}@rAaD@yCAsCC}@A"}, "start_location": {"lat": 45.4040772, "lng": -71.9181672}, "travel_mode": "WALKING"}, {"distance": {"text": "0.3 km", "value": 277}, "duration": {"text": "4 mins", "value": 228}, "end_location": {"lat": 45.4095666, "lng": -71.91843709999999}, "html_instructions": "Slight <b>right</b> to stay on <b>Boulevard Jacques-Cartier N</b><div style=\"font-size:0.9em\">Destination will be on the right</div>", "maneuver": "turn-slight-right", "polyline": {"points": "gqctG~q}uLEEuKUQ?cAB"}, "start_location": {"lat": 45.4070776, "lng": -71.9185589}, "travel_mode": "WALKING"}], "travel_mode": "WALKING"}], "traffic_speed_entry": [], "via_waypoint": []}], "overview_polyline": {"points": "ad{sGjjhvLRuARw@cAu@}DmCwBwAcAw@eAcAiAuAiAeB_BmDqByDqA}AGGELB@IGHSyKqJsEkDmKYYEWOcAc@uBw@MASEu@UkDU{ADo@F@rABhCEv@M`AUx@oDxHkAlCYdAWnBIvCAzA@t@_C?WG[[iDgHoG}M}EiKGSB_ARqFkIqBSCe@?g@L]Ts@x@UX}@kBeBiDa@m@gAuAsBmB[SYQoPcKUM_Au@yA_Bg@k@WsA?WDm@Rg@\\[jA[d@D`@ZRl@Bt@In@Yd@MJ{CnAoXlIsEdAsAToALyf@bCi@?{@Gc@Ma@W]_@Ui@Om@EgANiBL[Xa@\\Y`@ObDU`BM\\AAWG{FAg@OyIMeIpBGBhAjACCsBH?I?CgAkAFc@eTAcAoBDUyLWoRAeDCeAEeDCef@R}eAF_SEkJ@gA?wAGY?GP@QFCQAg@eA`B?NK?}@rAaD@mHE}@AEEgLUcAB"}, "summary": "", "warnings": ["Walking directions are in beta.    Use caution \u2013 This route may be missing sidewalks or pedestrian paths."], "waypoint_order": []}], "status": "OK"}