{"geocoded_waypoints": [{"geocoder_status": "OK", "place_id": "ChIJywfUkEyzt0wRPYYdc8CzfbU", "types": ["establishment", "point_of_interest", "university"]}, {"geocoder_status": "OK", "place_id": "ChIJofAP7qyzt0wRv-BUHrL5q-Q", "types": ["bus_station", "establishment", "point_of_interest", "transit_station"]}], "routes": [{"bounds": {"northeast": {"lat": 45.412969, "lng": -71.86947599999999}, "southwest": {"lat": 45.3772411, "lng": -71.933086}}, "copyrights": "Map data \u00a92018 Google", "fare": {"currency": "CAD", "text": "CA$3.30", "value": 3.3}, "legs": [{"arrival_time": {"text": "2:49pm", "time_zone": "America/Toronto", "value": 1522781340}, "departure_time": {"text": "2:09pm", "time_zone": "America/Toronto", "value": 1522778951}, "distance": {"text": "11.0 km", "value": 11050}, "duration": {"text": "40 mins", "value": 2389}, "end_address": "Sherbrooke, QC J1E 2Y2, Canada", "end_location": {"lat": 45.412969, "lng": -71.870081}, "start_address": "Sherbrooke, QC J1K 2R1, Canada", "start_location": {"lat": 45.3782018, "lng": -71.92569929999999}, "steps": [{"distance": {"text": "0.7 km", "value": 739}, "duration": {"text": "9 mins", "value": 528}, "end_location": {"lat": 45.378944, "lng": -71.92950499999999}, "html_instructions": "Walk to Universit\u00e9 de Sherbrooke - Quai B", "polyline": {"points": "w|}sGr~~uL?x@M??j@?HAvL@AV?vAf@^?n@{@?i@L??G_@A?eAm@??jB?r@?|@?r@?T@\\?b@c@?e@?]@c@?M?M??LA?I?QMGDOLE@CAGAEAEGAE?ACI?AE?"}, "start_location": {"lat": 45.3782018, "lng": -71.92569929999999}, "steps": [{"distance": {"text": "46 m", "value": 46}, "duration": {"text": "1 min", "value": 30}, "end_location": {"lat": 45.3782704, "lng": -71.92620509999999}, "html_instructions": "Head <b>west</b>", "polyline": {"points": "w|}sGr~~uL?x@M??j@"}, "start_location": {"lat": 45.3782018, "lng": -71.92569929999999}, "travel_mode": "WALKING"}, {"distance": {"text": "0.3 km", "value": 322}, "duration": {"text": "4 mins", "value": 238}, "end_location": {"lat": 45.3772449, "lng": -71.9280991}, "html_instructions": "Take the pedestrian tunnel", "polyline": {"points": "e}}sGxa_vL?HAvL@AV?vAf@^?n@{@?i@L??G"}, "start_location": {"lat": 45.3782704, "lng": -71.92620509999999}, "travel_mode": "WALKING"}, {"distance": {"text": "18 m", "value": 18}, "duration": {"text": "1 min", "value": 11}, "end_location": {"lat": 45.3774044, "lng": -71.9280907}, "html_instructions": "Turn <b>left</b> toward <b>Voie 1 E</b>", "maneuver": "turn-left", "polyline": {"points": "wv}sGrm_vL_@A"}, "start_location": {"lat": 45.3772449, "lng": -71.9280991}, "travel_mode": "WALKING"}, {"distance": {"text": "27 m", "value": 27}, "duration": {"text": "1 min", "value": 26}, "end_location": {"lat": 45.3774016, "lng": -71.92774229999999}, "html_instructions": "Turn <b>right</b> onto <b>Voie 1 E</b>", "maneuver": "turn-right", "polyline": {"points": "ww}sGpm_vL?eA"}, "start_location": {"lat": 45.3774044, "lng": -71.9280907}, "travel_mode": "WALKING"}, {"distance": {"text": "0.2 km", "value": 167}, "duration": {"text": "2 mins", "value": 112}, "end_location": {"lat": 45.3776218, "lng": -71.9295494}, "html_instructions": "Make a <b>U-turn</b>", "maneuver": "uturn-left", "polyline": {"points": "ww}sGjk_vLm@??jB?r@?|@?r@?T@\\?b@"}, "start_location": {"lat": 45.3774016, "lng": -71.92774229999999}, "travel_mode": "WALKING"}, {"distance": {"text": "0.1 km", "value": 99}, "duration": {"text": "1 min", "value": 69}, "end_location": {"lat": 45.3784606, "lng": -71.9296306}, "html_instructions": "Turn <b>right</b>", "maneuver": "turn-right", "polyline": {"points": "cy}sGtv_vLc@?e@?]@c@?M?M??L"}, "start_location": {"lat": 45.3776218, "lng": -71.9295494}, "travel_mode": "WALKING"}, {"distance": {"text": "60 m", "value": 60}, "duration": {"text": "1 min", "value": 42}, "end_location": {"lat": 45.378944, "lng": -71.92950499999999}, "html_instructions": "Turn <b>right</b><div style=\"font-size:0.9em\">Destination will be on the left</div>", "maneuver": "turn-right", "polyline": {"points": "k~}sGdw_vLA?I?QMGDOLE@CAGAEAEGAE?ACI?AE?"}, "start_location": {"lat": 45.3784606, "lng": -71.9296306}, "travel_mode": "WALKING"}], "travel_mode": "WALKING"}, {"distance": {"text": "10.3 km", "value": 10311}, "duration": {"text": "31 mins", "value": 1860}, "end_location": {"lat": 45.412969, "lng": -71.870081}, "html_instructions": "Bus towards CHUS (Urgence)", "polyline": {"points": "ka~sGjv_vLFCFTJHH?L?HGJMLo@HOT@rCB?dAAlBA|JAd@CRETKTOTYP[FQ?[A_AHeCf@_A?y@BC?_BBs@BQAOEKCCAQMKKGGCEMQCGAEAECIAEAGESCWA[KoCCiAAi@A[A]AOC_@Io@U}A_AwDm@wBKYSo@c@kASm@Yo@]q@]o@g@s@m@}@[m@OQUQUUMMc@e@i@c@iAy@m@a@SI[OqAg@iCu@YMWIWOOUK[E[CQ@}C@{B@OBmHBmE@iA?w@EwB?s@?I?gA?eC@iBAaB@gB@iHBoA@sC@[?C?E@Y?UAIBs@@IDeA?_@EeAG_@Qy@AAK_@oAaCc@s@uB}Dg@eAgA}B}@cC]o@IMWi@e@w@OU@oB?}BAwD@eBEaH?S?AIoP?]AYCeE@_AE{EmA@y@@yCFqBBq@DaBDs@BU@O@yEFa@?y@?WA]IsCKkA?u@@KDG?yCQgAAC?i@?KDu@^m@d@o@b@s@d@eD}MuA}Fk@mB]_A?CuH}Qx@_@bAe@b@UPK?B?DBDF?FADADAFEDEDC~CsATGrCQd@O\\MVKPCX@JFPTDFR`@bBm@z@[fBq@vCkAxAo@`J_FDC@AVCP?D@FBDBLJBJDL@J?JGXEH[HE?KAGEQSSm@ESAC{AmI?E[}AWqAWsA_DiQG[Da@}AsIQLi@XuDnCi@`@u@cEKw@GUk@kDW?W@o@JE@SDw@VaBd@aAZ}@X}AZkA?_@A@Q?yAEwAAcD?g@wNHW?EoQA}JAoGeA?_UNyCBwKFS@mBBYBG@QByAZmEv@_@FAO"}, "start_location": {"lat": 45.378944, "lng": -71.92950499999999}, "transit_details": {"arrival_stop": {"location": {"lat": 45.412969, "lng": -71.870081}, "name": "13e av. Nord / Papineau"}, "arrival_time": {"text": "2:49pm", "time_zone": "America/Toronto", "value": 1522781340}, "departure_stop": {"location": {"lat": 45.378944, "lng": -71.92950499999999}, "name": "Universit\u00e9 de Sherbrooke - Quai B"}, "departure_time": {"text": "2:18pm", "time_zone": "America/Toronto", "value": 1522779480}, "headsign": "CHUS (Urgence)", "line": {"agencies": [{"name": "Soci\u00e9t\u00e9 de Transport de Sherbrooke", "phone": "1 (819) 564-2687", "url": "http://www.sts.qc.ca/"}], "color": "#40a629", "name": "Universit\u00e9 de Sherbrooke <> CHUS - Fleurimont", "short_name": "8", "text_color": "#ffffff", "vehicle": {"icon": "//maps.gstatic.com/mapfiles/transit/iw2/6/bus2.png", "name": "Bus", "type": "BUS"}}, "num_stops": 39}, "travel_mode": "TRANSIT"}], "traffic_speed_entry": [], "via_waypoint": []}], "overview_polyline": {"points": "w|}sGr~~uL?x@M??t@?tLV?vAf@^?n@{@?i@L??G_@A?eAm@??~C?pB@r@?b@c@?cA@q@?M??LK?QMGDUNKCKIESE?FCFTJHV?TULo@HOhDDEvQIh@[j@YP[Fm@A_AHeCf@yBBiDD[IUOe@k@K]My@MkDEsBIiB_@mC_AwDm@wB_@iAw@yBw@aBeAcBiAkBe@c@qBmBwB{Ao@YqAg@iCu@q@WWOOUQw@CQ@}CBkCH}REkD?qA@yLHiP@y@HmC?_@EeAG_@S{@K_@oAaCyCqFoBcE}@cC]o@a@w@u@mA@mFEsQKiRAeGE{EmA@sEHqBBq@DuCHe@B{FFqAA]IsCKaC@KDG?yCQgAAm@?aAd@}AhAs@d@eD}MuA}Fk@mB]cAuH}Qx@_@fB{@PK?BBJNAJCLKdDwATGrCQbA]h@OX@JFV\\R`@bBm@bDmAvCkAxAo@fJcFXEV@LFPVFXGd@EH[HQAYYYaA}AqIkAiGgDeRDa@}AsI{@f@_FpDuB}Lo@@u@LoF~A}@X}AZkBA@kBG{F?g@wNHW?EoQCmSeWNsTPa@DkB^mF~@AO"}, "summary": "", "warnings": ["Walking directions are in beta.    Use caution \u2013 This route may be missing sidewalks or pedestrian paths."], "waypoint_order": []}], "status": "OK"}