{"geocoded_waypoints": [{"geocoder_status": "OK", "place_id": "ChIJofAP7qyzt0wRv-BUHrL5q-Q", "types": ["bus_station", "establishment", "point_of_interest", "transit_station"]}, {"geocoder_status": "OK", "place_id": "ChIJhfR8J-myt0wRxVfQG1CXw0o", "types": ["bus_station", "establishment", "point_of_interest", "transit_station"]}], "routes": [{"bounds": {"northeast": {"lat": 45.4129528, "lng": -71.86508599999999}, "southwest": {"lat": 45.38953799999999, "lng": -71.879068}}, "copyrights": "Map data \u00a92018 Google", "fare": {"currency": "CAD", "text": "CA$3.30", "value": 3.3}, "legs": [{"arrival_time": {"text": "2:14pm", "time_zone": "America/Toronto", "value": 1522779279}, "departure_time": {"text": "1:51pm", "time_zone": "America/Toronto", "value": 1522777860}, "distance": {"text": "4.3 km", "value": 4253}, "duration": {"text": "24 mins", "value": 1419}, "end_address": "Sherbrooke, QC J1G 2A2, Canada", "end_location": {"lat": 45.390384, "lng": -71.86508599999999}, "start_address": "Sherbrooke, QC J1E 2Y2, Canada", "start_location": {"lat": 45.4129528, "lng": -71.8701923}, "steps": [{"distance": {"text": "0.2 km", "value": 180}, "duration": {"text": "2 mins", "value": 130}, "end_location": {"lat": 45.412069, "lng": -71.871223}, "html_instructions": "Walk to Papineau / 12e av. Nord", "polyline": {"points": "}udtGtctuLvBc@h@fBf@fB]NBP"}, "start_location": {"lat": 45.4129528, "lng": -71.8701923}, "steps": [{"distance": {"text": "68 m", "value": 68}, "duration": {"text": "1 min", "value": 42}, "end_location": {"lat": 45.4123505, "lng": -71.87001479999999}, "html_instructions": "Head <b>south</b> on <b>13e Avenue N</b>/<b>QC-216 E</b> toward <b>Rue Papineau</b>", "polyline": {"points": "}udtGtctuLvBc@"}, "start_location": {"lat": 45.4129528, "lng": -71.8701923}, "travel_mode": "WALKING"}, {"distance": {"text": "93 m", "value": 93}, "duration": {"text": "1 min", "value": 68}, "end_location": {"lat": 45.4119378, "lng": -71.8710467}, "html_instructions": "Turn <b>right</b> onto <b>Rue Papineau</b>", "maneuver": "turn-right", "polyline": {"points": "erdtGpbtuLh@fBf@fB"}, "start_location": {"lat": 45.4123505, "lng": -71.87001479999999}, "travel_mode": "WALKING"}, {"distance": {"text": "19 m", "value": 19}, "duration": {"text": "1 min", "value": 20}, "end_location": {"lat": 45.412069, "lng": -71.871223}, "html_instructions": "Turn <b>right</b> onto <b>12e Avenue N</b>/<b>QC-216 O</b><div style=\"font-size:0.9em\">Destination will be on the left</div>", "maneuver": "turn-right", "polyline": {"points": "sodtG`ituL]NBP"}, "start_location": {"lat": 45.4119378, "lng": -71.8710467}, "travel_mode": "WALKING"}], "travel_mode": "WALKING"}, {"distance": {"text": "2.5 km", "value": 2482}, "duration": {"text": "8 mins", "value": 499}, "end_location": {"lat": 45.396182, "lng": -71.878252}, "html_instructions": "Bus towards Station du D\u00e9p\u00f4t", "polyline": {"points": "mpdtGbjtuLEW^OnAi@\\Ix@KhAA|NIfFE~RMR?@dJBlS@TrNIZ?@jEDvA?xAhBR|A[XIdBk@`Be@v@WXGn@KD?PAV?j@jDFTJv@p@tDBL~EqDJEDR"}, "start_location": {"lat": 45.412069, "lng": -71.871223}, "transit_details": {"arrival_stop": {"location": {"lat": 45.396182, "lng": -71.878252}, "name": "\u00c9cole De la Mont\u00e9e - Pavillon Saint-Fran\u00e7ois"}, "arrival_time": {"text": "2:01pm", "time_zone": "America/Toronto", "value": 1522778479}, "departure_stop": {"location": {"lat": 45.412069, "lng": -71.871223}, "name": "Papineau / 12e av. Nord"}, "departure_time": {"text": "1:53pm", "time_zone": "America/Toronto", "value": 1522777980}, "headsign": "Station du D\u00e9p\u00f4t", "line": {"agencies": [{"name": "Soci\u00e9t\u00e9 de Transport de Sherbrooke", "phone": "1 (819) 564-2687", "url": "http://www.sts.qc.ca/"}], "color": "#40a629", "name": "Universit\u00e9 de Sherbrooke <> CHUS - Fleurimont", "short_name": "8", "text_color": "#ffffff", "vehicle": {"icon": "//maps.gstatic.com/mapfiles/transit/iw2/6/bus2.png", "name": "Bus", "type": "BUS"}}, "num_stops": 12}, "travel_mode": "TRANSIT"}, {"distance": {"text": "47 m", "value": 47}, "duration": {"text": "1 min", "value": 32}, "end_location": {"lat": 45.396566, "lng": -71.87851500000001}, "html_instructions": "Walk to Bowen Sud / Galt Est", "polyline": {"points": "cmatG`vuuLGSs@f@UPBN"}, "start_location": {"lat": 45.396182, "lng": -71.878252}, "steps": [{"distance": {"text": "47 m", "value": 47}, "duration": {"text": "1 min", "value": 32}, "end_location": {"lat": 45.396566, "lng": -71.87851500000001}, "html_instructions": "Head <b>northwest</b> on <b>Rue Bowen S</b> toward <b>Rue Woodward</b><div style=\"font-size:0.9em\">Destination will be on the left</div>", "polyline": {"points": "cmatG`vuuLGSs@f@UPBN"}, "start_location": {"lat": 45.396182, "lng": -71.878252}, "travel_mode": "WALKING"}], "travel_mode": "WALKING"}, {"distance": {"text": "1.5 km", "value": 1544}, "duration": {"text": "3 mins", "value": 173}, "end_location": {"lat": 45.390384, "lng": -71.86508599999999}, "html_instructions": "Bus towards Bowen - Talbot", "polyline": {"points": "qoatGvwuuLCO~@s@h@YPMbEkCp@a@nGgGr@s@BCBEDCFI?CbAcAlAuABCRa@hBqCl@eAnE_IbD_G?mB?iDsCFS?KaS?AA_DL?"}, "start_location": {"lat": 45.396566, "lng": -71.87851500000001}, "transit_details": {"arrival_stop": {"location": {"lat": 45.390384, "lng": -71.86508599999999}, "name": "Aubry / de Caen"}, "arrival_time": {"text": "2:14pm", "time_zone": "America/Toronto", "value": 1522779279}, "departure_stop": {"location": {"lat": 45.396566, "lng": -71.87851500000001}, "name": "Bowen Sud / Galt Est"}, "departure_time": {"text": "2:11pm", "time_zone": "America/Toronto", "value": 1522779106}, "headsign": "Bowen - Talbot", "line": {"agencies": [{"name": "Soci\u00e9t\u00e9 de Transport de Sherbrooke", "phone": "1 (819) 564-2687", "url": "http://www.sts.qc.ca/"}], "color": "#a6d514", "name": "Carrefour de l'Estrie <> Bowen - Talbot", "short_name": "1", "text_color": "#000000", "vehicle": {"icon": "//maps.gstatic.com/mapfiles/transit/iw2/6/bus2.png", "name": "Bus", "type": "BUS"}}, "num_stops": 6}, "travel_mode": "TRANSIT"}], "traffic_speed_entry": [], "via_waypoint": []}], "overview_polyline": {"points": "}udtGtctuLvBc@h@fBf@fB]NBPEWnBy@\\Ix@KfQKfZSR?@dJDbTnOIFbH?xAhBRvBe@fEqApA_@t@Kh@Ar@`E|@lFBL~EqDJEDRGSs@f@UPBNCO~@s@z@g@bEkCp@a@nGgGv@w@HIFMpCyCVe@vCwErJ_Q?wGgDFKcSA_DL?"}, "summary": "", "warnings": ["Walking directions are in beta.    Use caution \u2013 This route may be missing sidewalks or pedestrian paths."], "waypoint_order": []}], "status": "OK"}