{"geocoded_waypoints": [{"geocoder_status": "OK", "place_id": "ChIJlTIswquzt0wRLH_04FarzWo", "types": ["establishment", "point_of_interest", "school"]}, {"geocoder_status": "OK", "place_id": "ChIJj8nlPKazt0wRtN35m7P1nZg", "types": ["establishment", "park", "point_of_interest"]}], "routes": [{"bounds": {"northeast": {"lat": 45.4116885, "lng": -71.8742105}, "southwest": {"lat": 45.406579, "lng": -71.883493}}, "copyrights": "Map data \u00a92018 Google", "fare": {"currency": "CAD", "text": "CA$3.30", "value": 3.3}, "legs": [{"arrival_time": {"text": "2:01pm", "time_zone": "America/Toronto", "value": 1522778466}, "departure_time": {"text": "1:47pm", "time_zone": "America/Toronto", "value": 1522777665}, "distance": {"text": "1.6 km", "value": 1608}, "duration": {"text": "13 mins", "value": 801}, "end_address": "Parc Sylvie-Daigle, 400 Rue du C\u00e9gep, Sherbrooke, QC J1E 2J9, Canada", "end_location": {"lat": 45.4116885, "lng": -71.883163}, "start_address": "655 Rue Papineau, Sherbrooke, QC J1E 1Y6, Canada", "start_location": {"lat": 45.4108449, "lng": -71.8742105}, "steps": [{"distance": {"text": "0.6 km", "value": 610}, "duration": {"text": "7 mins", "value": 424}, "end_location": {"lat": 45.40760299999999, "lng": -71.879915}, "html_instructions": "Walk to King Est / Murray", "polyline": {"points": "whdtGx|tuLd@pBfAtEr@tCp@hCJZFTHRDJj@`ALVHPt@tAp@tAv@zAXh@LTFJBFBBDBD@J@~@AZ??U"}, "start_location": {"lat": 45.4108449, "lng": -71.8742105}, "steps": [{"distance": {"text": "0.6 km", "value": 559}, "duration": {"text": "6 mins", "value": 373}, "end_location": {"lat": 45.4080582, "lng": -71.8800356}, "html_instructions": "Head <b>southwest</b> on <b>Rue Papineau</b> toward <b>8e Avenue N</b>", "polyline": {"points": "whdtGx|tuLd@pBfAtEr@tCp@hCJZFTHRDJj@`ALVHPt@tAp@tAv@zAXh@LTFJBFBBDBD@J@"}, "start_location": {"lat": 45.4108449, "lng": -71.8742105}, "travel_mode": "WALKING"}, {"distance": {"text": "51 m", "value": 51}, "duration": {"text": "1 min", "value": 51}, "end_location": {"lat": 45.40760299999999, "lng": -71.879915}, "html_instructions": "Slight <b>left</b> onto <b>Rue Murray</b><div style=\"font-size:0.9em\">Destination will be on the left</div>", "maneuver": "turn-slight-left", "polyline": {"points": "kwctGfavuL~@AZ??U"}, "start_location": {"lat": 45.4080582, "lng": -71.8800356}, "travel_mode": "WALKING"}], "travel_mode": "WALKING"}, {"distance": {"text": "0.7 km", "value": 742}, "duration": {"text": "3 mins", "value": 158}, "end_location": {"lat": 45.409721, "lng": -71.882429}, "html_instructions": "Bus towards Station du C\u00e9gep", "polyline": {"points": "otctGn`vuL?RoA@@NF^FTXh@Zr@V`@zAfC@Rz@|A`@v@W^_@d@]^ODO@cBNO@kD\\iALaBN_AkELG"}, "start_location": {"lat": 45.40760299999999, "lng": -71.879915}, "transit_details": {"arrival_stop": {"location": {"lat": 45.409721, "lng": -71.882429}, "name": "\u00c9difice Expo-Sherbrooke"}, "arrival_time": {"text": "1:57pm", "time_zone": "America/Toronto", "value": 1522778248}, "departure_stop": {"location": {"lat": 45.40760299999999, "lng": -71.879915}, "name": "King Est / Murray"}, "departure_time": {"text": "1:54pm", "time_zone": "America/Toronto", "value": 1522778090}, "headsign": "Station du C\u00e9gep", "line": {"agencies": [{"name": "Soci\u00e9t\u00e9 de Transport de Sherbrooke", "phone": "1 (819) 564-2687", "url": "http://www.sts.qc.ca/"}], "color": "#a6d514", "name": "Carrefour de l'Estrie <> Bowen - Talbot", "short_name": "1", "text_color": "#000000", "vehicle": {"icon": "//maps.gstatic.com/mapfiles/transit/iw2/6/bus2.png", "name": "Bus", "type": "BUS"}}, "num_stops": 4}, "travel_mode": "TRANSIT"}, {"distance": {"text": "0.3 km", "value": 256}, "duration": {"text": "4 mins", "value": 218}, "end_location": {"lat": 45.4116885, "lng": -71.883163}, "html_instructions": "Walk to Parc Sylvie-Daigle, 400 Rue du C\u00e9gep, Sherbrooke, QC J1E 2J9, Canada", "polyline": {"points": "wadtGdpvuLITGEIEEAIAE?I@GDIDiCvBMJOJWHKDIaAACaAVa@J"}, "start_location": {"lat": 45.409721, "lng": -71.882429}, "steps": [{"distance": {"text": "0.2 km", "value": 170}, "duration": {"text": "2 mins", "value": 144}, "end_location": {"lat": 45.4111274, "lng": -71.8833277}, "html_instructions": "Head <b>northeast</b>", "polyline": {"points": "wadtGdpvuLITGEIEEAIAE?I@GDIDiCvBMJOJWHKD"}, "start_location": {"lat": 45.409721, "lng": -71.882429}, "travel_mode": "WALKING"}, {"distance": {"text": "28 m", "value": 28}, "duration": {"text": "1 min", "value": 22}, "end_location": {"lat": 45.4111868, "lng": -71.88298069999999}, "html_instructions": "Turn <b>right</b>", "maneuver": "turn-right", "polyline": {"points": "qjdtGxuvuLIaAAC"}, "start_location": {"lat": 45.4111274, "lng": -71.8833277}, "travel_mode": "WALKING"}, {"distance": {"text": "58 m", "value": 58}, "duration": {"text": "1 min", "value": 52}, "end_location": {"lat": 45.4116885, "lng": -71.883163}, "html_instructions": "Turn <b>left</b><div style=\"font-size:0.9em\">Destination will be on the right</div>", "maneuver": "turn-left", "polyline": {"points": "}jdtGrsvuLaAVa@J"}, "start_location": {"lat": 45.4111868, "lng": -71.88298069999999}, "travel_mode": "WALKING"}], "travel_mode": "WALKING"}], "traffic_speed_entry": [], "via_waypoint": []}], "overview_polyline": {"points": "whdtGx|tuLlBfIdB~GRp@N^xB`EpCpFJRHFPBzAA?U?RoA@@NNt@t@|ArBhD@Rz@|A`@v@W^}@dA_@FsBPuFj@aBN_AkELGITQKOCO@QJwCbCg@TKDIaAACcBb@"}, "summary": "", "warnings": ["Walking directions are in beta.    Use caution \u2013 This route may be missing sidewalks or pedestrian paths."], "waypoint_order": []}], "status": "OK"}