{"geocoded_waypoints": [{"geocoder_status": "OK", "place_id": "ChIJx7e0axezt0wR2q2nteWlbGA", "types": ["bus_station", "establishment", "point_of_interest", "transit_station"]}, {"geocoder_status": "OK", "place_id": "ChIJofAP7qyzt0wRv-BUHrL5q-Q", "types": ["bus_station", "establishment", "point_of_interest", "transit_station"]}], "routes": [{"bounds": {"northeast": {"lat": 45.41561, "lng": -71.87001479999999}, "southwest": {"lat": 45.3947231, "lng": -71.89867}}, "copyrights": "Map data \u00a92018 Google", "fare": {"currency": "CAD", "text": "CA$3.30", "value": 3.3}, "legs": [{"arrival_time": {"text": "2:21pm", "time_zone": "America/Toronto", "value": 1522779697}, "departure_time": {"text": "1:54pm", "time_zone": "America/Toronto", "value": 1522778050}, "distance": {"text": "4.9 km", "value": 4927}, "duration": {"text": "27 mins", "value": 1647}, "end_address": "Sherbrooke, QC J1E 2Y2, Canada", "end_location": {"lat": 45.4129528, "lng": -71.8701923}, "start_address": "Sherbrooke, QC J1H 4B5, Canada", "start_location": {"lat": 45.3947231, "lng": -71.8947573}, "steps": [{"distance": {"text": "0.2 km", "value": 223}, "duration": {"text": "3 mins", "value": 170}, "end_location": {"lat": 45.395865, "lng": -71.895999}, "html_instructions": "Walk to Belv\u00e9d\u00e8re Sud (le Centre Sherbrooke)", "polyline": {"points": "_datGf}xuLEl@AHEBE?M?qAEGjCAd@Cb@cBC@O"}, "start_location": {"lat": 45.3947231, "lng": -71.8947573}, "steps": [{"distance": {"text": "37 m", "value": 37}, "duration": {"text": "1 min", "value": 32}, "end_location": {"lat": 45.3948853, "lng": -71.89505980000001}, "html_instructions": "Head <b>west</b>", "polyline": {"points": "_datGf}xuLEl@AHEBE?M?"}, "start_location": {"lat": 45.3947231, "lng": -71.8947573}, "travel_mode": "WALKING"}, {"distance": {"text": "46 m", "value": 46}, "duration": {"text": "1 min", "value": 32}, "end_location": {"lat": 45.39529539999999, "lng": -71.8950275}, "html_instructions": "Slight <b>right</b> toward <b>Rue Belv\u00e9d\u00e8re S</b>", "maneuver": "turn-slight-right", "polyline": {"points": "aeatGb_yuLqAE"}, "start_location": {"lat": 45.3948853, "lng": -71.89505980000001}, "travel_mode": "WALKING"}, {"distance": {"text": "84 m", "value": 84}, "duration": {"text": "1 min", "value": 71}, "end_location": {"lat": 45.3953668, "lng": -71.8961003}, "html_instructions": "Turn <b>left</b> toward <b>Rue Belv\u00e9d\u00e8re S</b>", "maneuver": "turn-left", "polyline": {"points": "sgatG|~xuLGjCAd@Cb@"}, "start_location": {"lat": 45.39529539999999, "lng": -71.8950275}, "travel_mode": "WALKING"}, {"distance": {"text": "56 m", "value": 56}, "duration": {"text": "1 min", "value": 35}, "end_location": {"lat": 45.395865, "lng": -71.895999}, "html_instructions": "Turn <b>right</b> onto <b>Rue Belv\u00e9d\u00e8re S</b><div style=\"font-size:0.9em\">Destination will be on the right</div>", "maneuver": "turn-right", "polyline": {"points": "ahatGreyuLcBC@O"}, "start_location": {"lat": 45.3953668, "lng": -71.8961003}, "travel_mode": "WALKING"}], "travel_mode": "WALKING"}, {"distance": {"text": "2.7 km", "value": 2677}, "duration": {"text": "10 mins", "value": 594}, "end_location": {"lat": 45.412958, "lng": -71.884905}, "html_instructions": "Bus towards Chardonnerets / Marika", "polyline": {"points": "ckatG~dyuL?Nu@@KDG?yCQgAAC?i@?KDu@^m@d@o@b@s@d@mEjCGBk@TA@k@`@a@\\cBfAoAz@UNYy@]u@c@s@sAqCCQAIcC}EsF}KU[s@\\IF}BpA_@^MNCBu@x@sCxCcAjAKJYOGGGIIOSWCEQUe@q@Wc@MSS_@a@_AY{@K[yEuOYiAe@wAKW[w@_@o@_BgCCUwBgDOWsBaDwA}B_@m@}DeGj@w@DKDD"}, "start_location": {"lat": 45.395865, "lng": -71.895999}, "transit_details": {"arrival_stop": {"location": {"lat": 45.412958, "lng": -71.884905}, "name": "Plateau Sylvie-Daigle"}, "arrival_time": {"text": "2:06pm", "time_zone": "America/Toronto", "value": 1522778814}, "departure_stop": {"location": {"lat": 45.395865, "lng": -71.895999}, "name": "Belv\u00e9d\u00e8re Sud (le Centre Sherbrooke)"}, "departure_time": {"text": "1:57pm", "time_zone": "America/Toronto", "value": 1522778220}, "headsign": "Chardonnerets / Marika", "line": {"agencies": [{"name": "Soci\u00e9t\u00e9 de Transport de Sherbrooke", "phone": "1 (819) 564-2687", "url": "http://www.sts.qc.ca/"}], "color": "#994500", "name": "Universit\u00e9 de Sherbrooke <> des Chardonnerets", "short_name": "9", "text_color": "#ffffff", "vehicle": {"icon": "//maps.gstatic.com/mapfiles/transit/iw2/6/bus2.png", "name": "Bus", "type": "BUS"}}, "num_stops": 12}, "travel_mode": "TRANSIT"}, {"distance": {"text": "2 m", "value": 2}, "duration": {"text": "1 min", "value": 1}, "end_location": {"lat": 45.413062, "lng": -71.884778}, "html_instructions": "Walk to Plateau Sylvie-Daigle", "polyline": {"points": "_vdtGr_wuLGKA@IM"}, "start_location": {"lat": 45.412958, "lng": -71.884905}, "steps": [{"distance": {"text": "2 m", "value": 2}, "duration": {"text": "1 min", "value": 1}, "end_location": {"lat": 45.413062, "lng": -71.884778}, "html_instructions": "Head <b>northwest</b> toward <b>Rue Terrill</b>", "polyline": {"points": "_vdtGr_wuLGKA@IM"}, "start_location": {"lat": 45.412958, "lng": -71.884905}, "travel_mode": "WALKING"}], "travel_mode": "WALKING"}, {"distance": {"text": "1.9 km", "value": 1856}, "duration": {"text": "4 mins", "value": 213}, "end_location": {"lat": 45.41184699999999, "lng": -71.87109699999999}, "html_instructions": "Bus towards 13e Avenue / 24-Juin", "polyline": {"points": "svdtGz~vuLBDY`@Y\\oByC[SIK}AeCOa@iCgEO_@ESI_@My@G{@Gi@A}@@{@|@i@nAy@lA_AVOb@Y^S?AJIRItAc@_AsHG]MoB]_DACCYdBEnFC|ICx@AeAiEcAoE_@{A]wAAG_AuDG[k@cCHE"}, "start_location": {"lat": 45.413062, "lng": -71.884778}, "transit_details": {"arrival_stop": {"location": {"lat": 45.41184699999999, "lng": -71.87109699999999}, "name": "Papineau / 12e av. Nord"}, "arrival_time": {"text": "2:19pm", "time_zone": "America/Toronto", "value": 1522779540}, "departure_stop": {"location": {"lat": 45.413062, "lng": -71.884778}, "name": "Plateau Sylvie-Daigle"}, "departure_time": {"text": "2:15pm", "time_zone": "America/Toronto", "value": 1522779327}, "headsign": "13e Avenue / 24-Juin", "line": {"agencies": [{"name": "Soci\u00e9t\u00e9 de Transport de Sherbrooke", "phone": "1 (819) 564-2687", "url": "http://www.sts.qc.ca/"}], "color": "#0277bd", "name": "Carrefour de l'Estrie <> 13e avenue - du 24-Juin", "short_name": "3", "text_color": "#ffffff", "vehicle": {"icon": "//maps.gstatic.com/mapfiles/transit/iw2/6/bus2.png", "name": "Bus", "type": "BUS"}}, "num_stops": 9}, "travel_mode": "TRANSIT"}, {"distance": {"text": "0.2 km", "value": 169}, "duration": {"text": "3 mins", "value": 172}, "end_location": {"lat": 45.4129528, "lng": -71.8701923}, "html_instructions": "Walk to Sherbrooke, QC J1E 2Y2, Canada", "polyline": {"points": "aodtGjituLKFEQg@gBi@gBwBb@"}, "start_location": {"lat": 45.41184699999999, "lng": -71.87109699999999}, "steps": [{"distance": {"text": "0.1 km", "value": 101}, "duration": {"text": "2 mins", "value": 107}, "end_location": {"lat": 45.4123505, "lng": -71.87001479999999}, "html_instructions": "Head <b>northeast</b> on <b>Rue Papineau</b> toward <b>12e Avenue N</b>/<b>QC-216 O</b>", "polyline": {"points": "aodtGjituLKFEQg@gBi@gB"}, "start_location": {"lat": 45.41184699999999, "lng": -71.87109699999999}, "travel_mode": "WALKING"}, {"distance": {"text": "68 m", "value": 68}, "duration": {"text": "1 min", "value": 65}, "end_location": {"lat": 45.4129528, "lng": -71.8701923}, "html_instructions": "Turn <b>left</b> onto <b>13e Avenue N</b>/<b>QC-216 E</b><div style=\"font-size:0.9em\">Destination will be on the right</div>", "maneuver": "turn-left", "polyline": {"points": "erdtGpbtuLwBb@"}, "start_location": {"lat": 45.4123505, "lng": -71.87001479999999}, "travel_mode": "WALKING"}], "travel_mode": "WALKING"}], "traffic_speed_entry": [], "via_waypoint": []}], "overview_polyline": {"points": "_datGf}xuLEl@GLS?qAEGjCEhAcBC@O?Nu@@KDG?yCQgAAm@?aAd@}AhAiGtDm@VmA~@sDbCUNYy@aAiBsAqCCQeCgFsF}KU[}@d@}BpA_@^QRiErEoAvAa@Wi@w@}A_Cu@_Be@wAyEuOYiAq@oB[w@_@o@_BgCCUgC_EkE_H}EsHp@cADDGKA@IMBDY`@Y\\oByC[SIK}AeCOa@iCgEO_@Os@UuBGi@A}@@{@|@i@|CyBzA_A^StAc@_AsHUmC]_DE]tII|ICx@AeAiEcBkH_@_BgAqEk@cCHEKFEQqAoEwBb@"}, "summary": "", "warnings": ["Walking directions are in beta.    Use caution \u2013 This route may be missing sidewalks or pedestrian paths."], "waypoint_order": []}], "status": "OK"}