{"geocoded_waypoints": [{"geocoder_status": "OK", "place_id": "ChIJ-zEMMkuyt0wRQxomG3wMq7w", "types": ["bus_station", "establishment", "point_of_interest", "transit_station"]}, {"geocoder_status": "OK", "partial_match": true, "place_id": "ChIJUYmzbQizt0wRh_u4rIJuNrg", "types": ["establishment", "point_of_interest", "school"]}], "routes": [{"bounds": {"northeast": {"lat": 45.4218291, "lng": -71.8617076}, "southwest": {"lat": 45.4074687, "lng": -71.886115}}, "copyrights": "Map data \u00a92018 Google", "fare": {"currency": "CAD", "text": "CA$3.30", "value": 3.3}, "legs": [{"arrival_time": {"text": "2:21pm", "time_zone": "America/Toronto", "value": 1522779711}, "departure_time": {"text": "2:00pm", "time_zone": "America/Toronto", "value": 1522778405}, "distance": {"text": "5.1 km", "value": 5140}, "duration": {"text": "22 mins", "value": 1306}, "end_address": "200 Rue Kennedy N, Sherbrooke, QC J1E 2E7, Canada", "end_location": {"lat": 45.4074751, "lng": -71.886115}, "start_address": "Sherbrooke, QC J1E 0A7, Canada", "start_location": {"lat": 45.4215288, "lng": -71.8617076}, "steps": [{"distance": {"text": "0.2 km", "value": 218}, "duration": {"text": "3 mins", "value": 169}, "end_location": {"lat": 45.421353, "lng": -71.863868}, "html_instructions": "Walk to des Lys / des Quatre-Saisons", "polyline": {"points": "qkftGtnruLy@DAbABzB@ZBf@Fb@\\nBd@SHd@"}, "start_location": {"lat": 45.4215288, "lng": -71.8617076}, "steps": [{"distance": {"text": "32 m", "value": 32}, "duration": {"text": "1 min", "value": 23}, "end_location": {"lat": 45.4218178, "lng": -71.8617439}, "html_instructions": "Head <b>north</b> on <b>Rue des Capucines</b> toward <b>Rue des Quatre-Saisons</b>", "polyline": {"points": "qkftGtnruLy@D"}, "start_location": {"lat": 45.4215288, "lng": -71.8617076}, "travel_mode": "WALKING"}, {"distance": {"text": "0.2 km", "value": 163}, "duration": {"text": "2 mins", "value": 129}, "end_location": {"lat": 45.4215919, "lng": -71.86378239999999}, "html_instructions": "Turn <b>left</b> onto <b>Rue des Quatre-Saisons</b>", "maneuver": "turn-left", "polyline": {"points": "kmftGznruLAbABzB@ZBf@Fb@\\nB"}, "start_location": {"lat": 45.4218178, "lng": -71.8617439}, "travel_mode": "WALKING"}, {"distance": {"text": "23 m", "value": 23}, "duration": {"text": "1 min", "value": 17}, "end_location": {"lat": 45.421353, "lng": -71.863868}, "html_instructions": "Turn <b>left</b> onto <b>Rue des Lys</b><div style=\"font-size:0.9em\">Destination will be on the right</div>", "maneuver": "turn-left", "polyline": {"points": "}kftGr{ruLd@SHd@"}, "start_location": {"lat": 45.4215919, "lng": -71.86378239999999}, "travel_mode": "WALKING"}], "travel_mode": "WALKING"}, {"distance": {"text": "4.7 km", "value": 4686}, "duration": {"text": "16 mins", "value": 948}, "end_location": {"lat": 45.407803, "lng": -71.88327199999999}, "html_instructions": "Bus towards Carrefour de l'Estrie", "polyline": {"points": "mjftGd|ruLEY^KRE`@@NBb@Pl@X~@b@vAv@v@ZpC`ARHi@nDz@`@nAh@zEdBHAvAOnBE`@CzAIbAIrCMTCHEf@YLK`ArDd@|A|@CZAtLETABfD?dC@pB?\\mBBYBG@QByAZsB\\fApDHZr@xCFZt@|CHV@F|@rDbAnEb@dB`@bBqJDuGBs@Bq@@b@|DHhABd@`A|Hv@dGBNMDe@Pa@LUJyA~@u@l@w@h@mBlAQLe@ZHTL^f@`AXf@z@rAd@l@PLfBpCNb@pB`DNODFj@w@DKlAuBHYVq@LMFING`AUFVHdATzB?JBJDHHDF@F?HCLIDKBM?Mk@kFzAc@x@]pDsCFED@HBBHv@pDHZjIw@@J"}, "start_location": {"lat": 45.421353, "lng": -71.863868}, "transit_details": {"arrival_stop": {"location": {"lat": 45.407803, "lng": -71.88327199999999}, "name": "du C\u00e9gep / Mont-Plaisant"}, "arrival_time": {"text": "2:18pm", "time_zone": "America/Toronto", "value": 1522779529}, "departure_stop": {"location": {"lat": 45.421353, "lng": -71.863868}, "name": "des Lys / des Quatre-Saisons"}, "departure_time": {"text": "2:03pm", "time_zone": "America/Toronto", "value": 1522778581}, "headsign": "Carrefour de l'Estrie", "line": {"agencies": [{"name": "Soci\u00e9t\u00e9 de Transport de Sherbrooke", "phone": "1 (819) 564-2687", "url": "http://www.sts.qc.ca/"}], "color": "#0277bd", "name": "Carrefour de l'Estrie <> 13e avenue - du 24-Juin", "short_name": "3", "text_color": "#ffffff", "vehicle": {"icon": "//maps.gstatic.com/mapfiles/transit/iw2/6/bus2.png", "name": "Bus", "type": "BUS"}}, "num_stops": 21}, "travel_mode": "TRANSIT"}, {"distance": {"text": "0.2 km", "value": 236}, "duration": {"text": "3 mins", "value": 182}, "end_location": {"lat": 45.4074751, "lng": -71.886115}, "html_instructions": "Walk to 200 Rue Kennedy N, Sherbrooke, QC J1E 2E7, Canada", "polyline": {"points": "wuctGluvuLAGJCDx@DhAJnCR`CFtABtAAB"}, "start_location": {"lat": 45.407803, "lng": -71.88327199999999}, "steps": [{"distance": {"text": "7 m", "value": 7}, "duration": {"text": "1 min", "value": 5}, "end_location": {"lat": 45.4077455, "lng": -71.88321499999999}, "html_instructions": "Head <b>south</b> on <b>Rue du C\u00e9gep</b> toward <b>Rue Mont-Plaisant</b>", "polyline": {"points": "wuctGluvuLAGJC"}, "start_location": {"lat": 45.407803, "lng": -71.88327199999999}, "travel_mode": "WALKING"}, {"distance": {"text": "0.2 km", "value": 229}, "duration": {"text": "3 mins", "value": 177}, "end_location": {"lat": 45.4074751, "lng": -71.886115}, "html_instructions": "Turn <b>right</b> onto <b>Rue Mont-Plaisant</b><div style=\"font-size:0.9em\">Destination will be on the right</div>", "maneuver": "turn-right", "polyline": {"points": "muctG`uvuLDx@DhAJnCR`CFtABtAAB"}, "start_location": {"lat": 45.4077455, "lng": -71.88321499999999}, "travel_mode": "WALKING"}], "travel_mode": "WALKING"}], "traffic_speed_entry": [], "via_waypoint": []}], "overview_polyline": {"points": "qkftGtnruLy@DAbADvCJjA\\nBd@SHd@EYr@Qp@DpAj@vCzAv@ZpC`ARHi@nDjCjAzEdBHAvAOnBE|BMvEW^It@e@fBpGxAEjMGBlH@nCgCFYDmEx@pAlEz@tD~BpJfBtH`@bBqJDiIFq@@b@|DLnBxBbQBNMDgA^oBjAmBvA_CzAe@ZHTt@`BtAzBv@z@fBpCNb@pB`DNODFj@w@rAaC`@kATWNG`AUP|ATfCHTPFPCLIDKB[k@kFzAc@x@]pDsCLCLL`AlEjIw@@JAGJCJbCJnCR`CJjDAB"}, "summary": "", "warnings": ["Walking directions are in beta.    Use caution \u2013 This route may be missing sidewalks or pedestrian paths."], "waypoint_order": []}], "status": "OK"}