{"geocoded_waypoints": [{"geocoder_status": "OK", "place_id": "ChIJofAP7qyzt0wRv-BUHrL5q-Q", "types": ["bus_station", "establishment", "point_of_interest", "transit_station"]}, {"geocoder_status": "OK", "partial_match": true, "place_id": "ChIJe8zDXfeyt0wRhGb4tdVBO2s", "types": ["bus_station", "establishment", "point_of_interest", "transit_station"]}], "routes": [{"bounds": {"northeast": {"lat": 45.4129528, "lng": -71.861222}, "southwest": {"lat": 45.396223, "lng": -71.877674}}, "copyrights": "Map data \u00a92018 Google", "fare": {"currency": "CAD", "text": "CA$3.30", "value": 3.3}, "legs": [{"arrival_time": {"text": "2:13pm", "time_zone": "America/Toronto", "value": 1522779232}, "departure_time": {"text": "1:51pm", "time_zone": "America/Toronto", "value": 1522777860}, "distance": {"text": "4.3 km", "value": 4330}, "duration": {"text": "23 mins", "value": 1372}, "end_address": "Sherbrooke, QC J1G 1S9, Canada", "end_location": {"lat": 45.401201, "lng": -71.861222}, "start_address": "Sherbrooke, QC J1E 2Y2, Canada", "start_location": {"lat": 45.4129528, "lng": -71.8701923}, "steps": [{"distance": {"text": "0.2 km", "value": 180}, "duration": {"text": "2 mins", "value": 130}, "end_location": {"lat": 45.412069, "lng": -71.871223}, "html_instructions": "Walk to Papineau / 12e av. Nord", "polyline": {"points": "}udtGtctuLvBc@h@fBf@fB]NBP"}, "start_location": {"lat": 45.4129528, "lng": -71.8701923}, "steps": [{"distance": {"text": "68 m", "value": 68}, "duration": {"text": "1 min", "value": 42}, "end_location": {"lat": 45.4123505, "lng": -71.87001479999999}, "html_instructions": "Head <b>south</b> on <b>13e Avenue N</b>/<b>QC-216 E</b> toward <b>Rue Papineau</b>", "polyline": {"points": "}udtGtctuLvBc@"}, "start_location": {"lat": 45.4129528, "lng": -71.8701923}, "travel_mode": "WALKING"}, {"distance": {"text": "93 m", "value": 93}, "duration": {"text": "1 min", "value": 68}, "end_location": {"lat": 45.4119378, "lng": -71.8710467}, "html_instructions": "Turn <b>right</b> onto <b>Rue Papineau</b>", "maneuver": "turn-right", "polyline": {"points": "erdtGpbtuLh@fBf@fB"}, "start_location": {"lat": 45.4123505, "lng": -71.87001479999999}, "travel_mode": "WALKING"}, {"distance": {"text": "19 m", "value": 19}, "duration": {"text": "1 min", "value": 20}, "end_location": {"lat": 45.412069, "lng": -71.871223}, "html_instructions": "Turn <b>right</b> onto <b>12e Avenue N</b>/<b>QC-216 O</b><div style=\"font-size:0.9em\">Destination will be on the left</div>", "maneuver": "turn-right", "polyline": {"points": "sodtG`ituL]NBP"}, "start_location": {"lat": 45.4119378, "lng": -71.8710467}, "travel_mode": "WALKING"}], "travel_mode": "WALKING"}, {"distance": {"text": "1.9 km", "value": 1930}, "duration": {"text": "7 mins", "value": 420}, "end_location": {"lat": 45.399851, "lng": -71.87758}, "html_instructions": "Bus towards Station du D\u00e9p\u00f4t", "polyline": {"points": "mpdtGbjtuLEW^OnAi@\\Ix@KhAA|NIfFE~RMR?@dJBlS@TrNIZ?@jEDvA?xAhBR|A[XIBR"}, "start_location": {"lat": 45.412069, "lng": -71.871223}, "transit_details": {"arrival_stop": {"location": {"lat": 45.399851, "lng": -71.87758}, "name": "Murray (CHUS - H\u00f4tel-Dieu)"}, "arrival_time": {"text": "2:00pm", "time_zone": "America/Toronto", "value": 1522778400}, "departure_stop": {"location": {"lat": 45.412069, "lng": -71.871223}, "name": "Papineau / 12e av. Nord"}, "departure_time": {"text": "1:53pm", "time_zone": "America/Toronto", "value": 1522777980}, "headsign": "Station du D\u00e9p\u00f4t", "line": {"agencies": [{"name": "Soci\u00e9t\u00e9 de Transport de Sherbrooke", "phone": "1 (819) 564-2687", "url": "http://www.sts.qc.ca/"}], "color": "#40a629", "name": "Universit\u00e9 de Sherbrooke <> CHUS - Fleurimont", "short_name": "8", "text_color": "#ffffff", "vehicle": {"icon": "//maps.gstatic.com/mapfiles/transit/iw2/6/bus2.png", "name": "Bus", "type": "BUS"}}, "num_stops": 9}, "travel_mode": "TRANSIT"}, {"distance": {"text": "1 m", "value": 0}, "duration": {"text": "1 min", "value": 0}, "end_location": {"lat": 45.399851, "lng": -71.87758}, "html_instructions": "Walk to Murray (CHUS - H\u00f4tel-Dieu)", "polyline": {"points": "adbtGzquuL"}, "start_location": {"lat": 45.399851, "lng": -71.87758}, "steps": [{"distance": {"text": "1 m", "value": 0}, "duration": {"text": "1 min", "value": 0}, "end_location": {"lat": 45.399851, "lng": -71.87758}, "polyline": {"points": "adbtGzquuL"}, "start_location": {"lat": 45.399851, "lng": -71.87758}, "travel_mode": "WALKING"}], "travel_mode": "WALKING"}, {"distance": {"text": "2.2 km", "value": 2220}, "duration": {"text": "5 mins", "value": 292}, "end_location": {"lat": 45.401201, "lng": -71.861222}, "html_instructions": "Bus towards 13e Avenue / 24-Juin", "polyline": {"points": "adbtGzquuLCSdBk@`Be@v@WXGn@KD?PAV?u@{D[kBMq@G]E[e@mEc@gDIeAA[@[DYNw@DSBO~M_E`@MI_R?[m@@OBYFo@DC?uHBCMMB[DYF[JUHUHo@{IUwDASu@La@Bw@?[Aw@GmA]ME?sCCoCAuEAiFF?"}, "start_location": {"lat": 45.399851, "lng": -71.87758}, "transit_details": {"arrival_stop": {"location": {"lat": 45.401201, "lng": -71.861222}, "name": "Chalifoux / Longpr\u00e9"}, "arrival_time": {"text": "2:13pm", "time_zone": "America/Toronto", "value": 1522779232}, "departure_stop": {"location": {"lat": 45.399851, "lng": -71.87758}, "name": "Murray (CHUS - H\u00f4tel-Dieu)"}, "departure_time": {"text": "2:09pm", "time_zone": "America/Toronto", "value": 1522778940}, "headsign": "13e Avenue / 24-Juin", "line": {"agencies": [{"name": "Soci\u00e9t\u00e9 de Transport de Sherbrooke", "phone": "1 (819) 564-2687", "url": "http://www.sts.qc.ca/"}], "color": "#1b5e20", "name": "Du Manoir <> 13e avenue - du 24-Juin", "short_name": "55", "text_color": "#ffffff", "vehicle": {"icon": "//maps.gstatic.com/mapfiles/transit/iw2/6/bus2.png", "name": "Bus", "type": "BUS"}}, "num_stops": 9}, "travel_mode": "TRANSIT"}], "traffic_speed_entry": [], "via_waypoint": []}], "overview_polyline": {"points": "}udtGtctuLvBc@h@fBf@fB]NBPEWnBy@\\Ix@KfQKfZSR?@dJDbTnOIFbH?xAhBRvBe@BRCSfEqApA_@t@Kh@AgBwJyAwM?w@TqAHc@`OmEI{R}@DYFo@DyHBCMMBu@Lq@TUHo@{IWkEu@La@BsAAw@GmA]ME?sCEeJAiFF?"}, "summary": "", "warnings": ["Walking directions are in beta.    Use caution \u2013 This route may be missing sidewalks or pedestrian paths."], "waypoint_order": []}], "status": "OK"}