{"geocoded_waypoints": [{"geocoder_status": "OK", "place_id": "ChIJywfUkEyzt0wRPYYdc8CzfbU", "types": ["establishment", "point_of_interest", "university"]}, {"geocoder_status": "OK", "partial_match": true, "place_id": "ChIJ3zHB6mlLtkwRG7uBUS0kS18", "types": ["establishment", "point_of_interest", "school"]}], "routes": [{"bounds": {"northeast": {"lat": 45.392787, "lng": -71.92569929999999}, "southwest": {"lat": 45.3638068, "lng": -71.973657}}, "copyrights": "Map data \u00a92018 Google", "fare": {"currency": "CAD", "text": "CA$3.30", "value": 3.3}, "legs": [{"arrival_time": {"text": "2:40pm", "time_zone": "America/Toronto", "value": 1522780830}, "departure_time": {"text": "2:09pm", "time_zone": "America/Toronto", "value": 1522778965}, "distance": {"text": "9.4 km", "value": 9406}, "duration": {"text": "31 mins", "value": 1865}, "end_address": "700, rue Andr\u00e9-Mathieu, Sherbrooke, QC J1N 0Z9, Canada", "end_location": {"lat": 45.3640116, "lng": -71.973657}, "start_address": "Sherbrooke, QC J1K 2R1, Canada", "start_location": {"lat": 45.3782018, "lng": -71.92569929999999}, "steps": [{"distance": {"text": "0.7 km", "value": 694}, "duration": {"text": "8 mins", "value": 497}, "end_location": {"lat": 45.37862800000001, "lng": -71.929695}, "html_instructions": "Walk to Universit\u00e9 de Sherbrooke - Quai D", "polyline": {"points": "w|}sGr~~uL?x@M??j@?HAvL@AV?vAf@^?n@{@?i@L??G_@A?eAm@??jB?r@?|@?r@?T@\\?b@c@?e@?]@c@?M?M??LA?I?MIGT"}, "start_location": {"lat": 45.3782018, "lng": -71.92569929999999}, "steps": [{"distance": {"text": "46 m", "value": 46}, "duration": {"text": "1 min", "value": 30}, "end_location": {"lat": 45.3782704, "lng": -71.92620509999999}, "html_instructions": "Head <b>west</b>", "polyline": {"points": "w|}sGr~~uL?x@M??j@"}, "start_location": {"lat": 45.3782018, "lng": -71.92569929999999}, "travel_mode": "WALKING"}, {"distance": {"text": "0.3 km", "value": 322}, "duration": {"text": "4 mins", "value": 238}, "end_location": {"lat": 45.3772449, "lng": -71.9280991}, "html_instructions": "Take the pedestrian tunnel", "polyline": {"points": "e}}sGxa_vL?HAvL@AV?vAf@^?n@{@?i@L??G"}, "start_location": {"lat": 45.3782704, "lng": -71.92620509999999}, "travel_mode": "WALKING"}, {"distance": {"text": "18 m", "value": 18}, "duration": {"text": "1 min", "value": 11}, "end_location": {"lat": 45.3774044, "lng": -71.9280907}, "html_instructions": "Turn <b>left</b> toward <b>Voie 1 E</b>", "maneuver": "turn-left", "polyline": {"points": "wv}sGrm_vL_@A"}, "start_location": {"lat": 45.3772449, "lng": -71.9280991}, "travel_mode": "WALKING"}, {"distance": {"text": "27 m", "value": 27}, "duration": {"text": "1 min", "value": 26}, "end_location": {"lat": 45.3774016, "lng": -71.92774229999999}, "html_instructions": "Turn <b>right</b> onto <b>Voie 1 E</b>", "maneuver": "turn-right", "polyline": {"points": "ww}sGpm_vL?eA"}, "start_location": {"lat": 45.3774044, "lng": -71.9280907}, "travel_mode": "WALKING"}, {"distance": {"text": "0.2 km", "value": 167}, "duration": {"text": "2 mins", "value": 112}, "end_location": {"lat": 45.3776218, "lng": -71.9295494}, "html_instructions": "Make a <b>U-turn</b>", "maneuver": "uturn-left", "polyline": {"points": "ww}sGjk_vLm@??jB?r@?|@?r@?T@\\?b@"}, "start_location": {"lat": 45.3774016, "lng": -71.92774229999999}, "travel_mode": "WALKING"}, {"distance": {"text": "0.1 km", "value": 99}, "duration": {"text": "1 min", "value": 69}, "end_location": {"lat": 45.3784606, "lng": -71.9296306}, "html_instructions": "Turn <b>right</b>", "maneuver": "turn-right", "polyline": {"points": "cy}sGtv_vLc@?e@?]@c@?M?M??L"}, "start_location": {"lat": 45.3776218, "lng": -71.9295494}, "travel_mode": "WALKING"}, {"distance": {"text": "15 m", "value": 15}, "duration": {"text": "1 min", "value": 11}, "end_location": {"lat": 45.37862800000001, "lng": -71.929695}, "html_instructions": "Turn <b>right</b><div style=\"font-size:0.9em\">Destination will be on the left</div>", "maneuver": "turn-right", "polyline": {"points": "k~}sGdw_vLA?I?MIGT"}, "start_location": {"lat": 45.3784606, "lng": -71.9296306}, "travel_mode": "WALKING"}], "travel_mode": "WALKING"}, {"distance": {"text": "4.8 km", "value": 4780}, "duration": {"text": "5 mins", "value": 300}, "end_location": {"lat": 45.388334, "lng": -71.960043}, "html_instructions": "Bus towards Fronti\u00e8re / Bourassa", "polyline": {"points": "m_~sGpw_vLAMBAHMVaAT@zA@v@@?dAAlBA|JAd@CRETKTOTYP[FQ?[A_AHeCf@_A?y@BcBB}EJ\\~g@D~ADlAF`AH`AL`AN~@Lv@BNRx@R`ARp@X|@Vr@Zr@@@^x@`DpGzB`ElFtKDTBh@@L?X@J?XAd@?L?JAJ?LAVALG`AAVKp@Ml@ITM^Q\\QZMNUV]X_@Vo@`@kCtAsAl@oDrAaJnCeA^{@Tc[nJYH{VvH{Bb@_@FQAOCOKMOKSGWE[?[D[FYJUNQRIPCP?NBLHr@p@z@|An@|@XXn@p@lAz@z@f@hBpAv@b@dAv@t@`@jBjAAF"}, "start_location": {"lat": 45.37862800000001, "lng": -71.929695}, "transit_details": {"arrival_stop": {"location": {"lat": 45.388334, "lng": -71.960043}, "name": "King / Sauv\u00e9"}, "arrival_time": {"text": "2:23pm", "time_zone": "America/Toronto", "value": 1522779780}, "departure_stop": {"location": {"lat": 45.37862800000001, "lng": -71.929695}, "name": "Universit\u00e9 de Sherbrooke - Quai D"}, "departure_time": {"text": "2:18pm", "time_zone": "America/Toronto", "value": 1522779480}, "headsign": "Fronti\u00e8re / Bourassa", "line": {"agencies": [{"name": "Soci\u00e9t\u00e9 de Transport de Sherbrooke", "phone": "1 (819) 564-2687", "url": "http://www.sts.qc.ca/"}], "color": "#f0037f", "name": "Universit\u00e9 de Sherbrooke <> Bourassa - Fronti\u00e8re", "short_name": "18", "text_color": "#ffffff", "vehicle": {"icon": "//maps.gstatic.com/mapfiles/transit/iw2/6/bus2.png", "name": "Bus", "type": "BUS"}}, "num_stops": 2}, "travel_mode": "TRANSIT"}, {"distance": {"text": "1 m", "value": 0}, "duration": {"text": "1 min", "value": 0}, "end_location": {"lat": 45.388334, "lng": -71.960043}, "html_instructions": "Walk to King / Sauv\u00e9", "polyline": {"points": "a|_tGfuevL"}, "start_location": {"lat": 45.388334, "lng": -71.960043}, "steps": [{"distance": {"text": "1 m", "value": 0}, "duration": {"text": "1 min", "value": 0}, "end_location": {"lat": 45.388334, "lng": -71.960043}, "polyline": {"points": "a|_tGfuevL"}, "start_location": {"lat": 45.388334, "lng": -71.960043}, "travel_mode": "WALKING"}], "travel_mode": "WALKING"}, {"distance": {"text": "3.2 km", "value": 3157}, "duration": {"text": "5 mins", "value": 326}, "end_location": {"lat": 45.368839, "lng": -71.967927}, "html_instructions": "Bus towards Place Dussault", "polyline": {"points": "a|_tGfuevL@G~@j@FD`An@~@r@d@`@b@d@dApA^j@|@~AlB`ER[TY^g@RQJIPKRGREJ?X?RBvHjBRDG|@CxAGxACl@?P@HDHb@dAxDdIvFpLHRpAfC|@nB^r@FPNRJFHDL@pB?L?AoA@aADuBBa@LkAHc@Jc@La@Na@z@kBtAuCjAkCLW?A?AHUJ_@D_@Fa@B_@@W?i@E_D?Sn@G\\C|@AvAFRBh@DTBNBB@NFPFPD@?L@tBv@p@\\PDRLB@XDzITdBn@XTzO`N_@|@CA"}, "start_location": {"lat": 45.388334, "lng": -71.960043}, "transit_details": {"arrival_stop": {"location": {"lat": 45.368839, "lng": -71.967927}, "name": "De Charlemagne / Bertrand-Fabi"}, "arrival_time": {"text": "2:30pm", "time_zone": "America/Toronto", "value": 1522780226}, "departure_stop": {"location": {"lat": 45.388334, "lng": -71.960043}, "name": "King / Sauv\u00e9"}, "departure_time": {"text": "2:25pm", "time_zone": "America/Toronto", "value": 1522779900}, "headsign": "Place Dussault", "line": {"agencies": [{"name": "Soci\u00e9t\u00e9 de Transport de Sherbrooke", "phone": "1 (819) 564-2687", "url": "http://www.sts.qc.ca/"}], "color": "#1a237e", "name": "Station du C\u00e9gep <> Place Dussault", "short_name": "17", "text_color": "#ffffff", "vehicle": {"icon": "//maps.gstatic.com/mapfiles/transit/iw2/6/bus2.png", "name": "Bus", "type": "BUS"}}, "num_stops": 11}, "travel_mode": "TRANSIT"}, {"distance": {"text": "0.8 km", "value": 775}, "duration": {"text": "10 mins", "value": 611}, "end_location": {"lat": 45.3640116, "lng": -71.973657}, "html_instructions": "Walk to 700, rue Andr\u00e9-Mathieu, Sherbrooke, QC J1N 0Z9, Canada", "polyline": {"points": "gb|sGpfgvLHH^_AFFj@n@d@l@l@hAbAnBHPtAzChAdBhAtAdAbAbAv@`An@t@f@~@p@|BzAbAt@Sv@StA"}, "start_location": {"lat": 45.368839, "lng": -71.967927}, "steps": [{"distance": {"text": "30 m", "value": 30}, "duration": {"text": "1 min", "value": 19}, "end_location": {"lat": 45.368627, "lng": -71.96766389999999}, "html_instructions": "Head <b>southeast</b> on <b>Rue de Charlemagne</b> toward <b>Rue Bertrand-Fabi</b>", "polyline": {"points": "gb|sGpfgvLHH^_A"}, "start_location": {"lat": 45.368839, "lng": -71.967927}, "travel_mode": "WALKING"}, {"distance": {"text": "0.7 km", "value": 685}, "duration": {"text": "9 mins", "value": 534}, "end_location": {"lat": 45.3638068, "lng": -71.9729463}, "html_instructions": "Turn <b>right</b> onto <b>Rue Bertrand-Fabi</b>", "maneuver": "turn-right", "polyline": {"points": "}`|sGzdgvLFFj@n@d@l@l@hAbAnBHPtAzChAdBhAtAdAbAbAv@`An@t@f@~@p@|BzAbAt@"}, "start_location": {"lat": 45.368627, "lng": -71.96766389999999}, "travel_mode": "WALKING"}, {"distance": {"text": "60 m", "value": 60}, "duration": {"text": "1 min", "value": 58}, "end_location": {"lat": 45.3640116, "lng": -71.973657}, "html_instructions": "Turn <b>right</b> onto <b>Rue Andr\u00e9-Mathieu</b><div style=\"font-size:0.9em\">Destination will be on the right</div>", "maneuver": "turn-right", "polyline": {"points": "yb{sG|ehvLSv@StA"}, "start_location": {"lat": 45.3638068, "lng": -71.9729463}, "travel_mode": "WALKING"}], "travel_mode": "WALKING"}], "traffic_speed_entry": [], "via_waypoint": []}], "overview_polyline": {"points": "w|}sGr~~uL?x@M??t@?tLV?vAf@^?n@{@?i@L??G_@A?eAm@??~C?pB@r@?b@c@?cA@q@?M??LK?MIGTAMBAHMVaApBBv@@?dACjNEx@ETKTOTYP[FQ?{AFeCf@_A?}CF}EJ\\~g@JlDPbC\\`CPfAf@zBl@nBr@fB`@z@`DpGzB`ElFtKDTDv@@d@AxAE~@IxAY~AWt@c@x@c@f@}@p@{DvBsAl@oDrAgLnD_]dKuW`I{Cj@a@E][Sk@Ew@Lu@Zg@d@M`@BLHr@p@z@|An@|@hAjAhCbBhBpAv@b@zBxAjBjAAF@G~@j@hAt@dBtAhBvB|AjClB`ER[t@aARQ\\Uf@Md@?jInBRDG|@KrDC~@FR|EjK`GdMnCvFf@dAZZVF~B??qCHwCVoBXeAjAmC`DaHVq@P_AJaACuFlAK|@AvAF|@Hd@Fv@VN@tBv@p@\\d@R\\FzITdBn@tPvN_@|@CAHH^_Ar@v@d@l@l@hAlA`CtAzChAdBhAtAdAbAdCfBvHjFSv@StA"}, "summary": "", "warnings": ["Walking directions are in beta.    Use caution \u2013 This route may be missing sidewalks or pedestrian paths."], "waypoint_order": []}], "status": "OK"}