{"geocoded_waypoints": [{"geocoder_status": "OK", "place_id": "ChIJ-zEMMkuyt0wRQxomG3wMq7w", "types": ["bus_station", "establishment", "point_of_interest", "transit_station"]}, {"geocoder_status": "OK", "partial_match": true, "place_id": "ChIJe8zDXfeyt0wRhGb4tdVBO2s", "types": ["bus_station", "establishment", "point_of_interest", "transit_station"]}], "routes": [{"bounds": {"northeast": {"lat": 45.4218291, "lng": -71.858296}, "southwest": {"lat": 45.40125399999999, "lng": -71.87373199999999}}, "copyrights": "Map data \u00a92018 Google", "fare": {"currency": "CAD", "text": "CA$3.30", "value": 3.3}, "legs": [{"arrival_time": {"text": "2:37pm", "time_zone": "America/Toronto", "value": 1522780620}, "departure_time": {"text": "2:18pm", "time_zone": "America/Toronto", "value": 1522779521}, "distance": {"text": "4.9 km", "value": 4944}, "duration": {"text": "18 mins", "value": 1099}, "end_address": "Sherbrooke, QC J1G 1S9, Canada", "end_location": {"lat": 45.401323, "lng": -71.860879}, "start_address": "Sherbrooke, QC J1E 0A7, Canada", "start_location": {"lat": 45.4215288, "lng": -71.8617076}, "steps": [{"distance": {"text": "0.8 km", "value": 791}, "duration": {"text": "9 mins", "value": 546}, "end_location": {"lat": 45.421, "lng": -71.869788}, "html_instructions": "Walk to Galeries Quatre-Saisons", "polyline": {"points": "qkftGtnruLy@DAbABzB@ZBf@Fb@\\nBh@vCH`@H\\Jd@Nh@Pd@Vn@`@z@Xp@Pp@Hb@Ll@NfALhADd@@ZBT@j@BjA?FBpC@v@}@BkBB?D"}, "start_location": {"lat": 45.4215288, "lng": -71.8617076}, "steps": [{"distance": {"text": "32 m", "value": 32}, "duration": {"text": "1 min", "value": 23}, "end_location": {"lat": 45.4218178, "lng": -71.8617439}, "html_instructions": "Head <b>north</b> on <b>Rue des Capucines</b> toward <b>Rue des Quatre-Saisons</b>", "polyline": {"points": "qkftGtnruLy@D"}, "start_location": {"lat": 45.4215288, "lng": -71.8617076}, "travel_mode": "WALKING"}, {"distance": {"text": "0.7 km", "value": 664}, "duration": {"text": "8 mins", "value": 454}, "end_location": {"lat": 45.420146, "lng": -71.8697208}, "html_instructions": "Turn <b>left</b> onto <b>Rue des Quatre-Saisons</b>", "maneuver": "turn-left", "polyline": {"points": "kmftGznruLAbABzB@ZBf@Fb@\\nBh@vCH`@H\\Jd@Nh@Pd@Vn@`@z@Xp@Pp@Hb@Ll@NfALhADd@@ZBT@j@BjA?FBpC@v@"}, "start_location": {"lat": 45.4218178, "lng": -71.8617439}, "travel_mode": "WALKING"}, {"distance": {"text": "0.1 km", "value": 95}, "duration": {"text": "1 min", "value": 69}, "end_location": {"lat": 45.421, "lng": -71.869788}, "html_instructions": "Turn <b>right</b>", "maneuver": "turn-right", "polyline": {"points": "}bftGv`tuL}@BkBB?D"}, "start_location": {"lat": 45.420146, "lng": -71.8697208}, "travel_mode": "WALKING"}], "travel_mode": "WALKING"}, {"distance": {"text": "4.2 km", "value": 4153}, "duration": {"text": "9 mins", "value": 556}, "end_location": {"lat": 45.401323, "lng": -71.860879}, "html_instructions": "Bus towards du Manoir", "polyline": {"points": "ghftGdatuL?MfDEDpK?n@DxBH~BFdBhGw@zC]tAMpAQTC`BQ`CYtBSZGNEJEZK~LuFdAk@TK^Or@xCFZ~@tDLIBCFAV?hQKP??T?vDfMI|KIAoDC}JAmFAsFC_EKmK?K?uACaCAyBBu@BYB]Jo@Nq@XcABKHYRw@BQ@G@EF_A?O?G@G?GA_@AWC[K_A]cC]_B_@yAWcAIYlKSjC??RF~EBjG?@M@"}, "start_location": {"lat": 45.421, "lng": -71.869788}, "transit_details": {"arrival_stop": {"location": {"lat": 45.401323, "lng": -71.860879}, "name": "Chalifoux / Longpr\u00e9"}, "arrival_time": {"text": "2:37pm", "time_zone": "America/Toronto", "value": 1522780620}, "departure_stop": {"location": {"lat": 45.421, "lng": -71.869788}, "name": "Galeries Quatre-Saisons"}, "departure_time": {"text": "2:27pm", "time_zone": "America/Toronto", "value": 1522780064}, "headsign": "du Manoir", "line": {"agencies": [{"name": "Soci\u00e9t\u00e9 de Transport de Sherbrooke", "phone": "1 (819) 564-2687", "url": "http://www.sts.qc.ca/"}], "color": "#1b5e20", "name": "Du Manoir <> 13e avenue - du 24-Juin", "short_name": "55", "text_color": "#ffffff", "vehicle": {"icon": "//maps.gstatic.com/mapfiles/transit/iw2/6/bus2.png", "name": "Bus", "type": "BUS"}}, "num_stops": 17}, "travel_mode": "TRANSIT"}], "traffic_speed_entry": [], "via_waypoint": []}], "overview_polyline": {"points": "qkftGtnruLy@DAbADvCJjAfAfGn@nCh@tAz@lBZtA\\tBX`DHpG@v@}@BkBB?D?MfDED`MNxFFdBdLuAfD_@nJcAj@Mf@QzP}Hz@tD~@tDLIJE`RKP??T?vDfMI|KIAoDEkREsLKyKCwE@oDFw@ZaBz@aDN_B@g@Cw@O{A]cC]_Bw@}CIYlKSjC??RJjNMB"}, "summary": "", "warnings": ["Walking directions are in beta.    Use caution \u2013 This route may be missing sidewalks or pedestrian paths."], "waypoint_order": []}], "status": "OK"}