{"geocoded_waypoints": [{"geocoder_status": "OK", "place_id": "ChIJfYGgcEyzt0wRuW1nQHVmiBM", "types": ["establishment", "point_of_interest", "university"]}, {"geocoder_status": "OK", "partial_match": true, "place_id": "ChIJjz5Hig-zt0wRnDSY4mlkCqo", "types": ["bus_station", "establishment", "point_of_interest", "transit_station"]}], "routes": [{"bounds": {"northeast": {"lat": 45.40182799999999, "lng": -71.88668}, "southwest": {"lat": 45.377569, "lng": -71.933086}}, "copyrights": "Map data \u00a92018 Google", "fare": {"currency": "CAD", "text": "CA$3.30", "value": 3.3}, "legs": [{"arrival_time": {"text": "2:24pm", "time_zone": "America/Toronto", "value": 1522779860}, "departure_time": {"text": "1:55pm", "time_zone": "America/Toronto", "value": 1522778133}, "distance": {"text": "8.9 km", "value": 8892}, "duration": {"text": "29 mins", "value": 1727}, "end_address": "Sherbrooke, QC J1H 1P3, Canada", "end_location": {"lat": 45.401703, "lng": -71.888916}, "start_address": "Voie 13, Sherbrooke, QC J1K 2X9, Canada", "start_location": {"lat": 45.3792044, "lng": -71.9246873}, "steps": [{"distance": {"text": "0.2 km", "value": 153}, "duration": {"text": "2 mins", "value": 129}, "end_location": {"lat": 45.378294, "lng": -71.92477199999999}, "html_instructions": "Walk to Universit\u00e9 de Sherbrooke (G\u00e9nie)", "polyline": {"points": "_c~sGhx~uLZeAf@aAtBnCCF"}, "start_location": {"lat": 45.3792044, "lng": -71.9246873}, "steps": [{"distance": {"text": "66 m", "value": 66}, "duration": {"text": "1 min", "value": 69}, "end_location": {"lat": 45.3788595, "lng": -71.92400599999999}, "html_instructions": "Head <b>southeast</b> on <b>Voie 13</b> toward <b>Voie 1</b>", "polyline": {"points": "_c~sGhx~uLZeAf@aA"}, "start_location": {"lat": 45.3792044, "lng": -71.9246873}, "travel_mode": "WALKING"}, {"distance": {"text": "87 m", "value": 87}, "duration": {"text": "1 min", "value": 60}, "end_location": {"lat": 45.378294, "lng": -71.92477199999999}, "html_instructions": "Turn <b>right</b> onto <b>Voie 1</b><div style=\"font-size:0.9em\">Destination will be on the right</div>", "maneuver": "turn-right", "polyline": {"points": "{`~sG`t~uLtBnCCF"}, "start_location": {"lat": 45.3788595, "lng": -71.92400599999999}, "travel_mode": "WALKING"}], "travel_mode": "WALKING"}, {"distance": {"text": "0.6 km", "value": 575}, "duration": {"text": "2 mins", "value": 138}, "end_location": {"lat": 45.378944, "lng": -71.92950499999999}, "html_instructions": "Bus towards Universit\u00e9 de Sherbrooke", "polyline": {"points": "i}}sGxx~uLJS|@jAj@~@BDBHBFBPBH@P@H@J?N@t@?`@AF?FCVCLCBCDCBCBCJCTAJ@L@LBHDJDF@FBD@D@B@LCjJsCCWAg@OQAMLGJAFAHCZGB"}, "start_location": {"lat": 45.378294, "lng": -71.92477199999999}, "transit_details": {"arrival_stop": {"location": {"lat": 45.378944, "lng": -71.92950499999999}, "name": "Universit\u00e9 de Sherbrooke - Quai B"}, "arrival_time": {"text": "2:00pm", "time_zone": "America/Toronto", "value": 1522778400}, "departure_stop": {"location": {"lat": 45.378294, "lng": -71.92477199999999}, "name": "Universit\u00e9 de Sherbrooke (G\u00e9nie)"}, "departure_time": {"text": "1:57pm", "time_zone": "America/Toronto", "value": 1522778262}, "headsign": "Universit\u00e9 de Sherbrooke", "line": {"agencies": [{"name": "Soci\u00e9t\u00e9 de Transport de Sherbrooke", "phone": "1 (819) 564-2687", "url": "http://www.sts.qc.ca/"}], "color": "#40a629", "name": "Universit\u00e9 de Sherbrooke <> CHUS - Fleurimont", "short_name": "8", "text_color": "#ffffff", "vehicle": {"icon": "//maps.gstatic.com/mapfiles/transit/iw2/6/bus2.png", "name": "Bus", "type": "BUS"}}, "num_stops": 2}, "travel_mode": "TRANSIT"}, {"distance": {"text": "8.2 km", "value": 8164}, "duration": {"text": "22 mins", "value": 1320}, "end_location": {"lat": 45.401703, "lng": -71.888916}, "html_instructions": "Bus towards Station du C\u00e9gep", "polyline": {"points": "ka~sGjv_vLFCHVHHNALCJKHOPu@T@rCB?dAAlBA|JAd@CRETKTOTYP[FQ?[A_AHeCf@_A?y@BC?_BBs@BQAOEKCCAQMKKGGCEMQCGAEAECIAEAGESCWA[KoCCiAAi@A[A]AOC_@Io@U}A_AwDm@wBKYSo@c@kASm@Yo@]q@]o@g@s@m@}@[m@OQUQUUMMc@e@i@c@iAy@m@a@SI[OqAg@iCu@YMWIWOOUK[E[CQ@}C@{B@OBmHBmE@iA?w@EwB?s@?I?gA?eC@iBAaB@gB@iHBoA@sC@[?C?E@Y?UAIBs@@IDeA?_@EeAG_@Qy@AAK_@oAaCc@s@uB}Dg@eAgA}B}@cC]o@IMWi@e@w@OU@oB?}BAwD@eBEaH?S?AIoP?]AYCeE@_ACuCAeAtCCPAT@R?TBR?VBRFH@NDd@JVJZHN@J?B?l@A@?@?|AIb@?NBd@WGKEOMi@ACCOC[Cq@?]C{@EkB?IIgEKoEEeBCeB|DQdLi@XAWcKAYQ}J?e@oJb@wFVqH\\oI^Q@^fQ@b@oF\\_@BI@I?oERqBJc@?i@CuAKMAm@K_AKM?ODg@P_EdC_@VgIlFe@ZwInFQJ}@wDk@mB]_A?CuH}Q`@QGc@"}, "start_location": {"lat": 45.378944, "lng": -71.92950499999999}, "transit_details": {"arrival_stop": {"location": {"lat": 45.401703, "lng": -71.888916}, "name": "Station du D\u00e9p\u00f4t - Quai I"}, "arrival_time": {"text": "2:24pm", "time_zone": "America/Toronto", "value": 1522779840}, "departure_stop": {"location": {"lat": 45.378944, "lng": -71.92950499999999}, "name": "Universit\u00e9 de Sherbrooke - Quai B"}, "departure_time": {"text": "2:02pm", "time_zone": "America/Toronto", "value": 1522778520}, "headsign": "Station du C\u00e9gep", "line": {"agencies": [{"name": "Soci\u00e9t\u00e9 de Transport de Sherbrooke", "phone": "1 (819) 564-2687", "url": "http://www.sts.qc.ca/"}], "color": "#b8027e", "name": "Universit\u00e9 de Sherbrooke <> Station du C\u00e9gep", "short_name": "14", "text_color": "#ffffff", "vehicle": {"icon": "//maps.gstatic.com/mapfiles/transit/iw2/6/bus2.png", "name": "Bus", "type": "BUS"}}, "num_stops": 33}, "travel_mode": "TRANSIT"}], "traffic_speed_entry": [], "via_waypoint": []}], "overview_polyline": {"points": "_c~sGhx~uLZeAf@aAtBnCCFJS|@jAn@dANl@Dv@?fBGd@GHGFG`@?XDVP`@BHAxJkDEg@OQAUXCPCZGBFCHVHHNALCJKZeAhDDEvQIh@[j@YP[Fm@A_AHeCf@yBBiDD[IUOe@k@K]My@MkDEsBIiB_@mC_AwDm@wB_@iAw@yBw@aBeAcBiAkBe@c@qBmBwB{Ao@YqAg@iCu@q@WWOOUQw@CQ@}CBkCH}REkD?qA@yLHiP@y@HmC?_@EeAG_@S{@K_@oAaCyCqFoBcE}@cC]o@a@w@u@mA@mFEsQKiRGaNfDEh@@h@Bj@JXF|@Vj@JN?nCKr@Bd@WGKSy@ESGmACyA[mOIkEbR{@XAWcKSwK?e@oJb@iPt@aJ`@`@jRcHb@aI^mACcBMmBWM?w@V_F|CmJhGiJzF}@wDk@mB]cAuH}Q`@QGc@"}, "summary": "", "warnings": ["Walking directions are in beta.    Use caution \u2013 This route may be missing sidewalks or pedestrian paths."], "waypoint_order": []}], "status": "OK"}