{"geocoded_waypoints": [{"geocoder_status": "OK", "place_id": "ChIJ4TgWUf6yt0wR8bVbRB505Uc", "types": ["bus_station", "establishment", "point_of_interest", "transit_station"]}, {"geocoder_status": "OK", "partial_match": true, "place_id": "ChIJeUJGDgyzt0wRpF6kOUfCkBQ", "types": ["establishment", "museum", "point_of_interest"]}], "routes": [{"bounds": {"northeast": {"lat": 45.4052275, "lng": -71.870536}, "southwest": {"lat": 45.394678, "lng": -71.8943439}}, "copyrights": "Map data \u00a92018 Google", "fare": {"currency": "CAD", "text": "CA$3.30", "value": 3.3}, "legs": [{"arrival_time": {"text": "2:16pm", "time_zone": "America/Toronto", "value": 1522779365}, "departure_time": {"text": "1:57pm", "time_zone": "America/Toronto", "value": 1522778220}, "distance": {"text": "4.1 km", "value": 4126}, "duration": {"text": "19 mins", "value": 1145}, "end_address": "241 Rue Dufferin, Sherbrooke, QC J1H 4M3, Canada", "end_location": {"lat": 45.4052275, "lng": -71.8943439}, "start_address": "Sherbrooke, QC J1G 2V5, Canada", "start_location": {"lat": 45.403817, "lng": -71.87064099999999}, "steps": [{"distance": {"text": "3.1 km", "value": 3133}, "duration": {"text": "11 mins", "value": 660}, "end_location": {"lat": 45.401387, "lng": -71.889063}, "html_instructions": "Bus towards Station du D\u00e9p\u00f4t", "polyline": {"points": "{|btGnftuL?SR?@dJBlS@TrNIZ?@jEDvA?xAhBR|A[XIdBk@`Be@v@WXGn@KD?PAV?j@jDFTJv@p@tDBL~EqDJE\\S|AlIJXfDdRBZAPAJCHa@p@GJa@n@MRIPQd@g@~@Wb@SZgBtA{@f@oB~@aBx@IDcBv@gFvBiA`@a@PqAj@iDpAi@FwALMBu@Xe@XULDNDJnA|CRMx@_@b@S?B@F?B@BID"}, "start_location": {"lat": 45.403817, "lng": -71.87064099999999}, "transit_details": {"arrival_stop": {"location": {"lat": 45.401387, "lng": -71.889063}, "name": "Station du D\u00e9p\u00f4t"}, "arrival_time": {"text": "2:08pm", "time_zone": "America/Toronto", "value": 1522778880}, "departure_stop": {"location": {"lat": 45.403817, "lng": -71.87064099999999}, "name": "12th Avenue. South / Council"}, "departure_time": {"text": "1:57pm", "time_zone": "America/Toronto", "value": 1522778220}, "headsign": "Station du D\u00e9p\u00f4t", "line": {"agencies": [{"name": "Soci\u00e9t\u00e9 de Transport de Sherbrooke", "phone": "1 (819) 564-2687", "url": "http://www.sts.qc.ca/"}], "color": "#40a629", "name": "Universit\u00e9 de Sherbrooke <> CHUS - Fleurimont", "short_name": "8", "text_color": "#ffffff", "vehicle": {"icon": "//maps.gstatic.com/mapfiles/transit/iw2/6/bus2.png", "name": "Bus", "type": "BUS"}}, "num_stops": 11}, "travel_mode": "TRANSIT"}, {"distance": {"text": "14 m", "value": 14}, "duration": {"text": "1 min", "value": 10}, "end_location": {"lat": 45.401497, "lng": -71.889139}, "html_instructions": "Walk to Station du D\u00e9p\u00f4t - Quai A", "polyline": {"points": "umbtGrywuLEUULDV"}, "start_location": {"lat": 45.401387, "lng": -71.889063}, "steps": [{"distance": {"text": "14 m", "value": 14}, "duration": {"text": "1 min", "value": 10}, "end_location": {"lat": 45.401497, "lng": -71.889139}, "html_instructions": "Head <b>north</b> on <b>Rue du D\u00e9p\u00f4t</b> toward <b>Rue King O</b>/<b>QC-112 E</b>", "polyline": {"points": "umbtGrywuLEUULDV"}, "start_location": {"lat": 45.401387, "lng": -71.889063}, "travel_mode": "WALKING"}], "travel_mode": "WALKING"}, {"distance": {"text": "0.8 km", "value": 842}, "duration": {"text": "2 mins", "value": 104}, "end_location": {"lat": 45.404106, "lng": -71.893615}, "html_instructions": "Bus towards Carrefour de l'Estrie", "polyline": {"points": "knbtGbzwuLEU`@S?B@F?B@B@B@@@B@@@@@@@@B@@?h@@@A@?@A@A?ABC?A@A?A@C?A?A@EAE?A?CAC?CK]cAf@a@RA?y@^SLjBrEcBz@UJyAp@gBdAm@Zw@`@cBdA_@V_@T_Az@FRl@fDRp@XQ@H"}, "start_location": {"lat": 45.401497, "lng": -71.889139}, "transit_details": {"arrival_stop": {"location": {"lat": 45.404106, "lng": -71.893615}, "name": "Marquette / Frontenac"}, "arrival_time": {"text": "2:14pm", "time_zone": "America/Toronto", "value": 1522779284}, "departure_stop": {"location": {"lat": 45.401497, "lng": -71.889139}, "name": "Station du D\u00e9p\u00f4t - Quai A"}, "departure_time": {"text": "2:13pm", "time_zone": "America/Toronto", "value": 1522779180}, "headsign": "Carrefour de l'Estrie", "line": {"agencies": [{"name": "Soci\u00e9t\u00e9 de Transport de Sherbrooke", "phone": "1 (819) 564-2687", "url": "http://www.sts.qc.ca/"}], "color": "#80deea", "name": "Carrefour de l'Estrie <> 13e avenue - du 24-Juin", "short_name": "57", "text_color": "#000000", "vehicle": {"icon": "//maps.gstatic.com/mapfiles/transit/iw2/6/bus2.png", "name": "Bus", "type": "BUS"}}, "num_stops": 4}, "travel_mode": "TRANSIT"}, {"distance": {"text": "0.1 km", "value": 137}, "duration": {"text": "2 mins", "value": 102}, "end_location": {"lat": 45.4052275, "lng": -71.8943439}, "html_instructions": "Walk to 241 Rue Dufferin, Sherbrooke, QC J1H 4M3, Canada", "polyline": {"points": "u~btGbvxuL?CULMHmAn@ULSLSJc@XKH"}, "start_location": {"lat": 45.404106, "lng": -71.893615}, "steps": [{"distance": {"text": "22 m", "value": 22}, "duration": {"text": "1 min", "value": 17}, "end_location": {"lat": 45.4042902, "lng": -71.8937153}, "html_instructions": "Head <b>northwest</b> on <b>Rue Marquette</b> toward <b>Rue Frontenac</b>", "polyline": {"points": "u~btGbvxuL?CULMH"}, "start_location": {"lat": 45.404106, "lng": -71.893615}, "travel_mode": "WALKING"}, {"distance": {"text": "0.1 km", "value": 115}, "duration": {"text": "1 min", "value": 85}, "end_location": {"lat": 45.4052275, "lng": -71.8943439}, "html_instructions": "Continue onto <b>Rue Dufferin</b>/<b>Pont Gilbert-Hyatt</b><div style=\"font-size:0.9em\">Continue to follow Rue Dufferin</div><div style=\"font-size:0.9em\">Destination will be on the left</div>", "polyline": {"points": "y_ctGvvxuLmAn@ULSLSJc@XKH"}, "start_location": {"lat": 45.4042902, "lng": -71.8937153}, "travel_mode": "WALKING"}], "travel_mode": "WALKING"}], "traffic_speed_entry": [], "via_waypoint": []}], "overview_polyline": {"points": "{|btGnftuL?SR?Dr^@TrNIZ?@jEDpDhBR|A[~Bu@xC}@hASVAV?j@jDRlAt@bEjFwD\\S|AlIJXfDdR@l@ETi@|@o@bA[v@_AbBSZgBtAkDfBkB~@kInDgJpDaCTcA\\{@f@JZnA|CRM|As@BRIDEUULDVEU`@S@JDLFHDBj@@FEFS?QAGK]cAf@c@RmAl@jBrEcBz@oB|@qHhE_Al@_Az@FRl@fDRp@XQ@H?CUL{Ax@aB`AKH"}, "summary": "", "warnings": ["Walking directions are in beta.    Use caution \u2013 This route may be missing sidewalks or pedestrian paths."], "waypoint_order": []}], "status": "OK"}