{"geocoded_waypoints": [{"geocoder_status": "OK", "partial_match": true, "place_id": "ChIJab28aA6zt0wR43NnFVrQMQk", "types": ["establishment", "point_of_interest", "school", "university"]}, {"geocoder_status": "OK", "place_id": "ChIJofAP7qyzt0wRv-BUHrL5q-Q", "types": ["bus_station", "establishment", "point_of_interest", "transit_station"]}], "routes": [{"bounds": {"northeast": {"lat": 45.414497, "lng": -71.858296}, "southwest": {"lat": 45.396223, "lng": -71.89697100000001}}, "copyrights": "Map data \u00a92018 Google", "fare": {"currency": "CAD", "text": "CA$3.30", "value": 3.3}, "legs": [{"arrival_time": {"text": "2:21pm", "time_zone": "America/Toronto", "value": 1522779679}, "departure_time": {"text": "1:47pm", "time_zone": "America/Toronto", "value": 1522777663}, "distance": {"text": "11.7 km", "value": 11669}, "duration": {"text": "34 mins", "value": 2016}, "end_address": "Sherbrooke, QC J1E 2Y2, Canada", "end_location": {"lat": 45.412969, "lng": -71.870081}, "start_address": "195 Rue Marquette, Sherbrooke, QC J1H 1L6, Canada", "start_location": {"lat": 45.4025585, "lng": -71.89372759999999}, "steps": [{"distance": {"text": "0.3 km", "value": 280}, "duration": {"text": "4 mins", "value": 230}, "end_location": {"lat": 45.40025, "lng": -71.892192}, "html_instructions": "Walk to King Ouest / Brooks", "polyline": {"points": "_ubtGxvxuLTJt@o@d@_@xBwAxCqBd@WPON@"}, "start_location": {"lat": 45.4025585, "lng": -71.89372759999999}, "steps": [{"distance": {"text": "13 m", "value": 13}, "duration": {"text": "1 min", "value": 14}, "end_location": {"lat": 45.4024539, "lng": -71.8937883}, "html_instructions": "Head <b>south</b> on <b>Rue Marquette</b> toward <b>Rue de la Cath\u00e9drale</b>", "polyline": {"points": "_ubtGxvxuLTJ"}, "start_location": {"lat": 45.4025585, "lng": -71.89372759999999}, "travel_mode": "WALKING"}, {"distance": {"text": "0.3 km", "value": 267}, "duration": {"text": "4 mins", "value": 216}, "end_location": {"lat": 45.40025, "lng": -71.892192}, "html_instructions": "Turn <b>left</b> onto <b>Rue de la Cath\u00e9drale</b>", "maneuver": "turn-left", "polyline": {"points": "itbtGdwxuLt@o@d@_@xBwAxCqBd@WPON@"}, "start_location": {"lat": 45.4024539, "lng": -71.8937883}, "travel_mode": "WALKING"}], "travel_mode": "WALKING"}, {"distance": {"text": "11.4 km", "value": 11389}, "duration": {"text": "30 mins", "value": 1786}, "end_location": {"lat": 45.412969, "lng": -71.870081}, "html_instructions": "Bus towards 13e Avenue / 24-Juin", "polyline": {"points": "qfbtGdmxuLEDuH}Qx@_@b@S?B@F?B@B@B@@@B@@@@@@@@B@@?h@@@A@?@A@A?ABC?A@A?A@C?A?A@EAE?A?CAC?CK]e@T]Pc@Ry@^oA}CI[m@uAc@eAKSQCYm@iEwKcAp@mEpCm@b@SPIJOVQ^CHW~@[`BSz@K^[t@KPCHGDgAjA_@^a@d@aArA_A|A]p@sArC[h@e@l@iDlCe@b@c@f@KNUZCBa@r@]v@[x@Yz@S~@Q|@M`AK`ACb@s@IW?UNmAzAkB`CQRONgA{BMKGAG?MJ_BpBe@`@OH_@LG?MICGCIIiAGm@?M@MHYfAwAlA{AjA{A|BwClFwGrGgIHKdAwAKW_@o@_BgCCUwBgDOWsBaDwA}B_@m@}DeGj@w@DKlAuBHYVq@LMFING`AUFV^`E?JBJDHHDF@F?HCLIDKBM?Mc@}DGm@zAc@x@]pDsCFED@HBBHv@pDHZjIw@nCWNE\\_@^e@V_@JMyAqCCEMCsBiD[s@Wc@AEGUG_@AO~BCfCB`F?hI?NALEd@WXUbAo@`JaGt@g@d@WZWp@W|A[XIdBk@`Be@v@WXGn@KD?PAV?u@{D[kBMq@G]E[e@mEc@gDIeAA[@[DYNw@DSBO~M_E`@MI_R?[m@@OBYFo@DC?uHBCMMB[DYF[JUHUHo@{IUwDASu@La@Bw@?[Aw@GmA]ME?sCCoCAuEAiFEsIGsF{@?oA?mKRHX\\rAXhA\\~A\\bCJ~@BZ@V@^?FAF?F?NG~@CLCPSv@IXCJGRA@Ol@Op@Kn@C\\CXCt@@pA?f@B`C?tAJdJ?VBrKFrQ@bGcA@uIFmLH]??mEeA?mPJE@A?CBMH_AuDG[k@cCGUqAmEyAX_@FAO"}, "start_location": {"lat": 45.40025, "lng": -71.892192}, "transit_details": {"arrival_stop": {"location": {"lat": 45.412969, "lng": -71.870081}, "name": "13e av. Nord / Papineau"}, "arrival_time": {"text": "2:21pm", "time_zone": "America/Toronto", "value": 1522779679}, "departure_stop": {"location": {"lat": 45.40025, "lng": -71.892192}, "name": "King Ouest / Brooks"}, "departure_time": {"text": "1:51pm", "time_zone": "America/Toronto", "value": 1522777893}, "headsign": "13e Avenue / 24-Juin", "line": {"agencies": [{"name": "Soci\u00e9t\u00e9 de Transport de Sherbrooke", "phone": "1 (819) 564-2687", "url": "http://www.sts.qc.ca/"}], "color": "#1b5e20", "name": "Du Manoir <> 13e avenue - du 24-Juin", "short_name": "55", "text_color": "#ffffff", "vehicle": {"icon": "//maps.gstatic.com/mapfiles/transit/iw2/6/bus2.png", "name": "Bus", "type": "BUS"}}, "num_stops": 47}, "travel_mode": "TRANSIT"}], "traffic_speed_entry": [], "via_waypoint": []}], "overview_polyline": {"points": "_ubtGxvxuLTJt@o@~CwB~DiCPON@EDuH}Q|As@BRFJHFn@?FIBI?OAMK]e@TaAd@y@^oA}Cw@qBo@yAQCYm@iEwKcAp@{FtD]\\a@v@[hAo@|Cg@tAOZoApAaAdAaArA_A|AqBdEaAvAoEpDiAvA_AjBu@tBe@|BYbCCb@s@IW?UNyD|Ea@b@gA{BMKOAMJ_BpBu@j@g@LQQMsAG{@Jg@tCsDjUsYnAcBk@gA_BgCCUgC_EkE_H}EsHp@cAlAuBHYVq@LMVQ`AUFV^lEHTPFPCLIDKB[k@kFzAc@x@]xDyCNDz@zDHZjIw@~C]|@eAb@m@}AwCMCsBiDs@wAI[Io@~BCfCBjP?\\G~@m@dLqHzA_AZWp@WvBe@fEqApA_@t@Kh@AqAgHUoAk@iFm@mF?w@^uB`OmEI{R}@DYFo@DyHBCMMBu@Lq@TUHo@{IWkEu@La@BsAAw@GmA]ME?sCEeJG}PGsF{@?oA?mKRf@lBv@hDh@bEDr@?v@GnAG^i@pBQn@[`BGv@AfCNdRLbg@eZR?mEeA?sPLEBMH_AuDs@_DyAcFyB`@AO"}, "summary": "", "warnings": ["Walking directions are in beta.    Use caution \u2013 This route may be missing sidewalks or pedestrian paths."], "waypoint_order": []}], "status": "OK"}