{"geocoded_waypoints": [{"geocoder_status": "OK", "place_id": "ChIJ02YBQaizt0wRLICZB_UN5DQ", "types": ["establishment", "point_of_interest"]}, {"geocoder_status": "OK", "place_id": "ChIJbf7mAXyzt0wRLhMg5l88IZ0", "types": ["bus_station", "establishment", "point_of_interest", "transit_station"]}], "routes": [{"bounds": {"northeast": {"lat": 45.41002, "lng": -71.8815159}, "southwest": {"lat": 45.398762, "lng": -71.91843709999999}}, "copyrights": "Map data \u00a92018 Google", "fare": {"currency": "CAD", "text": "CA$3.30", "value": 3.3}, "legs": [{"arrival_time": {"text": "2:26pm", "time_zone": "America/Toronto", "value": 1522779977}, "departure_time": {"text": "2:06pm", "time_zone": "America/Toronto", "value": 1522778794}, "distance": {"text": "4.8 km", "value": 4807}, "duration": {"text": "20 mins", "value": 1183}, "end_address": "Sherbrooke, QC J1J 3A5, Canada", "end_location": {"lat": 45.4095666, "lng": -71.91843709999999}, "start_address": "300 Rue du C\u00e9gep, Sherbrooke, QC J1E 1W9, Canada", "start_location": {"lat": 45.41002, "lng": -71.8815159}, "steps": [{"distance": {"text": "0.2 km", "value": 169}, "duration": {"text": "2 mins", "value": 121}, "end_location": {"lat": 45.409568, "lng": -71.883378}, "html_instructions": "Walk to \u00c9difice Expo-Sherbrooke", "polyline": {"points": "scdtGnjvuLFnB@jAD?H@D@HDHFFHDLZzB@NE@"}, "start_location": {"lat": 45.41002, "lng": -71.8815159}, "steps": [{"distance": {"text": "74 m", "value": 74}, "duration": {"text": "1 min", "value": 52}, "end_location": {"lat": 45.4099713, "lng": -71.8824613}, "html_instructions": "Head <b>west</b>", "polyline": {"points": "scdtGnjvuLFnB@jA"}, "start_location": {"lat": 45.41002, "lng": -71.8815159}, "travel_mode": "WALKING"}, {"distance": {"text": "0.1 km", "value": 95}, "duration": {"text": "1 min", "value": 69}, "end_location": {"lat": 45.409568, "lng": -71.883378}, "html_instructions": "Turn <b>left</b><div style=\"font-size:0.9em\">Destination will be on the right</div>", "maneuver": "turn-left", "polyline": {"points": "icdtGjpvuLD?H@D@HDHFFHDLZzB@NE@"}, "start_location": {"lat": 45.4099713, "lng": -71.8824613}, "travel_mode": "WALKING"}], "travel_mode": "WALKING"}, {"distance": {"text": "4.5 km", "value": 4513}, "duration": {"text": "16 mins", "value": 956}, "end_location": {"lat": 45.409355, "lng": -71.917312}, "html_instructions": "Bus towards Carrefour de l'Estrie", "polyline": {"points": "y`dtGbvvuLHEHZjIw@nCWNEtBA\\?`@p@JRDBDBBBH@r@^d@PvAt@^R~@`@XRJLTXrChHhBvEXl@DRBRnAxCDNDJnA|CRMx@_@b@S?B@F?B@B@B@@@B@@@@@@@@B@@?h@@@A@?@A@A?ABC?A@A?A@C?A?A@EAE?A?CAC?CK]cAf@c@Ry@^SLlIrSz@zCNj@rAzFPt@dAbEr@xCwD|BGBk@TA@k@`@a@\\cBfAoAz@UNQRoDxFmDnDKDURMNYZmAdAyKK{FG}FEm@AOvDMxEM|EA`@Gt@If@[vA?ZAN?lAD|F?^ErN?L?XAP?|D?jC@HCzDC|CA`J?BA~HM?"}, "start_location": {"lat": 45.409568, "lng": -71.883378}, "transit_details": {"arrival_stop": {"location": {"lat": 45.409355, "lng": -71.917312}, "name": "Prospect / Malouin"}, "arrival_time": {"text": "2:24pm", "time_zone": "America/Toronto", "value": 1522779871}, "departure_stop": {"location": {"lat": 45.409568, "lng": -71.883378}, "name": "\u00c9difice Expo-Sherbrooke"}, "departure_time": {"text": "2:08pm", "time_zone": "America/Toronto", "value": 1522778915}, "headsign": "Carrefour de l'Estrie", "line": {"agencies": [{"name": "Soci\u00e9t\u00e9 de Transport de Sherbrooke", "phone": "1 (819) 564-2687", "url": "http://www.sts.qc.ca/"}], "color": "#1b5e20", "name": "Carrefour de l'Estrie <> Station du C\u00e9gep", "short_name": "12", "text_color": "#ffffff", "vehicle": {"icon": "//maps.gstatic.com/mapfiles/transit/iw2/6/bus2.png", "name": "Bus", "type": "BUS"}}, "num_stops": 21}, "travel_mode": "TRANSIT"}, {"distance": {"text": "0.1 km", "value": 125}, "duration": {"text": "2 mins", "value": 105}, "end_location": {"lat": 45.4095666, "lng": -71.91843709999999}, "html_instructions": "Walk to Sherbrooke, QC J1J 3A5, Canada", "polyline": {"points": "o_dtGdj}uLL@A\\?l@ARAV@VBVJr@cAB"}, "start_location": {"lat": 45.409355, "lng": -71.917312}, "steps": [{"distance": {"text": "30 m", "value": 30}, "duration": {"text": "1 min", "value": 24}, "end_location": {"lat": 45.4092972, "lng": -71.9177002}, "html_instructions": "Head <b>west</b> on <b>Rue Prospect</b> toward <b>Rue Malouin</b>", "polyline": {"points": "o_dtGdj}uLL@A\\?l@"}, "start_location": {"lat": 45.409355, "lng": -71.917312}, "travel_mode": "WALKING"}, {"distance": {"text": "58 m", "value": 58}, "duration": {"text": "1 min", "value": 49}, "end_location": {"lat": 45.40923129999999, "lng": -71.9184226}, "html_instructions": "Slight <b>right</b> to stay on <b>Rue Prospect</b>", "maneuver": "turn-slight-right", "polyline": {"points": "c_dtGrl}uLARAV@VBVJr@"}, "start_location": {"lat": 45.4092972, "lng": -71.9177002}, "travel_mode": "WALKING"}, {"distance": {"text": "37 m", "value": 37}, "duration": {"text": "1 min", "value": 32}, "end_location": {"lat": 45.4095666, "lng": -71.91843709999999}, "html_instructions": "Turn <b>right</b> onto <b>Boulevard Jacques-Cartier N</b><div style=\"font-size:0.9em\">Destination will be on the right</div>", "maneuver": "turn-right", "polyline": {"points": "u~ctGbq}uLcAB"}, "start_location": {"lat": 45.40923129999999, "lng": -71.9184226}, "travel_mode": "WALKING"}], "travel_mode": "WALKING"}], "traffic_speed_entry": [], "via_waypoint": []}], "overview_polyline": {"points": "scdtGnjvuLHzDN@NFPP`@hC@NE@HEHZzMoANEtBA\\?`@p@PVHF|@`@|BfA~At@d@`@TXrChHbCdGHf@tAhDtAhDlAm@b@S?B@JFLDDDBj@@FEFS?QAGK]cAf@}Ar@SLlIrSjAfEdBpHdAbEr@xCwD|BGBm@VmA~@sDbCg@b@oDxFmDnDKDc@b@YZmAdAuSSkHG]pKO~FQ|A[vA?ZA|AD|GE`OAtJGdUAbIM?L@AjACj@Dn@Jr@cAB"}, "summary": "", "warnings": ["Walking directions are in beta.    Use caution \u2013 This route may be missing sidewalks or pedestrian paths."], "waypoint_order": []}], "status": "OK"}