{"geocoded_waypoints": [{"geocoder_status": "OK", "place_id": "ChIJfYGgcEyzt0wRuW1nQHVmiBM", "types": ["establishment", "point_of_interest", "university"]}, {"geocoder_status": "OK", "place_id": "ChIJj8nlPKazt0wRtN35m7P1nZg", "types": ["establishment", "park", "point_of_interest"]}], "routes": [{"bounds": {"northeast": {"lat": 45.41324400000001, "lng": -71.883163}, "southwest": {"lat": 45.3792044, "lng": -71.9280435}}, "copyrights": "Map data \u00a92018 Google", "fare": {"currency": "CAD", "text": "CA$3.30", "value": 3.3}, "legs": [{"arrival_time": {"text": "2:22pm", "time_zone": "America/Toronto", "value": 1522779731}, "departure_time": {"text": "1:46pm", "time_zone": "America/Toronto", "value": 1522777598}, "distance": {"text": "6.8 km", "value": 6823}, "duration": {"text": "36 mins", "value": 2133}, "end_address": "Parc Sylvie-Daigle, 400 Rue du C\u00e9gep, Sherbrooke, QC J1E 2J9, Canada", "end_location": {"lat": 45.4116885, "lng": -71.883163}, "start_address": "Voie 13, Sherbrooke, QC J1K 2X9, Canada", "start_location": {"lat": 45.3792044, "lng": -71.9246873}, "steps": [{"distance": {"text": "0.6 km", "value": 559}, "duration": {"text": "6 mins", "value": 372}, "end_location": {"lat": 45.382214, "lng": -71.927936}, "html_instructions": "Walk to boul. de l'Universit\u00e9 / Cabana", "polyline": {"points": "_c~sGhx~uLCFOIU\\?XE?W?MhAE?C@C@CBCDAD?B@BBF@@CHL`ABLEJShABLEFEJCN?N?PAz@M@{AAA`@iB?qB?mAA?nAu@fAMS"}, "start_location": {"lat": 45.3792044, "lng": -71.9246873}, "steps": [{"distance": {"text": "4 m", "value": 4}, "duration": {"text": "1 min", "value": 3}, "end_location": {"lat": 45.3792212, "lng": -71.9247276}, "html_instructions": "Head <b>northwest</b> on <b>Voie 13</b>", "polyline": {"points": "_c~sGhx~uLCF"}, "start_location": {"lat": 45.3792044, "lng": -71.9246873}, "travel_mode": "WALKING"}, {"distance": {"text": "9 m", "value": 9}, "duration": {"text": "1 min", "value": 8}, "end_location": {"lat": 45.3792986, "lng": -71.9246773}, "html_instructions": "Turn <b>right</b> toward <b>Voie 7</b>", "maneuver": "turn-right", "polyline": {"points": "cc~sGpx~uLOI"}, "start_location": {"lat": 45.3792212, "lng": -71.9247276}, "travel_mode": "WALKING"}, {"distance": {"text": "75 m", "value": 75}, "duration": {"text": "1 min", "value": 52}, "end_location": {"lat": 45.3796319, "lng": -71.9253337}, "html_instructions": "Turn <b>left</b> toward <b>Voie 7</b>", "maneuver": "turn-left", "polyline": {"points": "sc~sGfx~uLU\\?XE?W?MhA"}, "start_location": {"lat": 45.3792986, "lng": -71.9246773}, "travel_mode": "WALKING"}, {"distance": {"text": "18 m", "value": 18}, "duration": {"text": "1 min", "value": 11}, "end_location": {"lat": 45.3797465, "lng": -71.9254467}, "html_instructions": "Turn <b>right</b> toward <b>Voie 7</b>", "maneuver": "turn-right", "polyline": {"points": "ue~sGh|~uLE?C@C@CBCDAD?B"}, "start_location": {"lat": 45.3796319, "lng": -71.9253337}, "travel_mode": "WALKING"}, {"distance": {"text": "45 m", "value": 45}, "duration": {"text": "1 min", "value": 29}, "end_location": {"lat": 45.3796395, "lng": -71.9259694}, "html_instructions": "Turn <b>left</b> toward <b>Voie 7</b>", "maneuver": "turn-left", "polyline": {"points": "mf~sG`}~uL@BBF@@CHL`ABL"}, "start_location": {"lat": 45.3797465, "lng": -71.9254467}, "travel_mode": "WALKING"}, {"distance": {"text": "0.1 km", "value": 97}, "duration": {"text": "1 min", "value": 65}, "end_location": {"lat": 45.379836, "lng": -71.92712209999999}, "html_instructions": "Turn <b>right</b> onto <b>Voie 7</b>", "maneuver": "turn-right", "polyline": {"points": "we~sGh`_vLEJShABLEFEJCN?N?PAz@"}, "start_location": {"lat": 45.3796395, "lng": -71.9259694}, "travel_mode": "WALKING"}, {"distance": {"text": "60 m", "value": 60}, "duration": {"text": "1 min", "value": 38}, "end_location": {"lat": 45.380373, "lng": -71.92712329999999}, "html_instructions": "Turn <b>right</b> toward <b>Voie 5</b>", "maneuver": "turn-right", "polyline": {"points": "_g~sGng_vLM@{AA"}, "start_location": {"lat": 45.379836, "lng": -71.92712209999999}, "travel_mode": "WALKING"}, {"distance": {"text": "13 m", "value": 13}, "duration": {"text": "1 min", "value": 10}, "end_location": {"lat": 45.3803776, "lng": -71.92729109999999}, "html_instructions": "Turn <b>left</b> toward <b>Voie 5</b>", "maneuver": "turn-left", "polyline": {"points": "ij~sGng_vLA`@"}, "start_location": {"lat": 45.380373, "lng": -71.92712329999999}, "travel_mode": "WALKING"}, {"distance": {"text": "0.2 km", "value": 166}, "duration": {"text": "2 mins", "value": 109}, "end_location": {"lat": 45.3818663, "lng": -71.927281}, "html_instructions": "Turn <b>right</b> onto <b>Voie 5</b>", "maneuver": "turn-right", "polyline": {"points": "kj~sGph_vLiB?qB?mAA"}, "start_location": {"lat": 45.3803776, "lng": -71.92729109999999}, "travel_mode": "WALKING"}, {"distance": {"text": "31 m", "value": 31}, "duration": {"text": "1 min", "value": 20}, "end_location": {"lat": 45.3818701, "lng": -71.92768339999999}, "html_instructions": "Turn <b>left</b> onto <b>Voie 8</b>", "maneuver": "turn-left", "polyline": {"points": "us~sGnh_vL?nA"}, "start_location": {"lat": 45.3818663, "lng": -71.927281}, "travel_mode": "WALKING"}, {"distance": {"text": "41 m", "value": 41}, "duration": {"text": "1 min", "value": 27}, "end_location": {"lat": 45.382214, "lng": -71.927936}, "html_instructions": "Turn <b>right</b><div style=\"font-size:0.9em\">Destination will be on the right</div>", "maneuver": "turn-right", "polyline": {"points": "us~sG~j_vLu@fAMS"}, "start_location": {"lat": 45.3818701, "lng": -71.92768339999999}, "travel_mode": "WALKING"}], "travel_mode": "WALKING"}, {"distance": {"text": "3.0 km", "value": 2978}, "duration": {"text": "5 mins", "value": 285}, "end_location": {"lat": 45.403501, "lng": -71.9184594}, "html_instructions": "Bus towards Prospect / Ontario", "polyline": {"points": "yu~sGrl_vLIDSo@c@kASm@Yo@]q@]o@g@s@m@}@[m@OQUQUUMMc@e@i@c@iAy@m@a@SI[OqAg@iCu@YMWIWOOUK[E[CQ@}C@{B@OBmHBmE@iA?w@EwB?}@qDLgAXWLKFWRg@`@SLOJsHb@C?gJ`@_ADuFV{@Fi@BuA@Q?qCC_@@gFEOAQIwCEyCAKAQCy@AmNGgIEI?UA_AC?M"}, "start_location": {"lat": 45.382214, "lng": -71.927936}, "transit_details": {"arrival_stop": {"location": {"lat": 45.403501, "lng": -71.9184594}, "name": "boul. Jacques-Cartier Nord / boul. de Portland"}, "arrival_time": {"text": "1:57pm", "time_zone": "America/Toronto", "value": 1522778256}, "departure_stop": {"location": {"lat": 45.382214, "lng": -71.927936}, "name": "boul. de l'Universit\u00e9 / Cabana"}, "departure_time": {"text": "1:52pm", "time_zone": "America/Toronto", "value": 1522777971}, "headsign": "Prospect / Ontario", "line": {"agencies": [{"name": "Soci\u00e9t\u00e9 de Transport de Sherbrooke", "phone": "1 (819) 564-2687", "url": "http://www.sts.qc.ca/"}], "color": "#424242", "name": "Universit\u00e9 de Sherbrooke <> Ontario - Prospect", "short_name": "16", "text_color": "#ffffff", "vehicle": {"icon": "//maps.gstatic.com/mapfiles/transit/iw2/6/bus2.png", "name": "Bus", "type": "BUS"}}, "num_stops": 9}, "travel_mode": "TRANSIT"}, {"distance": {"text": "72 m", "value": 72}, "duration": {"text": "1 min", "value": 57}, "end_location": {"lat": 45.403611, "lng": -71.917847}, "html_instructions": "Walk to boul. Jacques-Cartier Nord / boul. de Portland", "polyline": {"points": "{zbtGjq}uL?Ne@?@iBASACPG"}, "start_location": {"lat": 45.403501, "lng": -71.9184594}, "steps": [{"distance": {"text": "21 m", "value": 21}, "duration": {"text": "1 min", "value": 16}, "end_location": {"lat": 45.4036912, "lng": -71.9185397}, "html_instructions": "Head <b>north</b> on <b>Boulevard Jacques-Cartier N</b> toward <b>Boul de Portland</b>", "polyline": {"points": "{zbtGjq}uL?Ne@?"}, "start_location": {"lat": 45.403501, "lng": -71.9184594}, "travel_mode": "WALKING"}, {"distance": {"text": "51 m", "value": 51}, "duration": {"text": "1 min", "value": 41}, "end_location": {"lat": 45.403611, "lng": -71.917847}, "html_instructions": "Turn <b>right</b> onto <b>Boul de Portland</b><div style=\"font-size:0.9em\">Destination will be on the right</div>", "maneuver": "turn-right", "polyline": {"points": "a|btGzq}uL@iBASACPG"}, "start_location": {"lat": 45.4036912, "lng": -71.9185397}, "travel_mode": "WALKING"}], "travel_mode": "WALKING"}, {"distance": {"text": "3.0 km", "value": 2993}, "duration": {"text": "9 mins", "value": 515}, "end_location": {"lat": 45.412958, "lng": -71.884905}, "html_instructions": "Bus towards Station du C\u00e9gep", "polyline": {"points": "q{btGpm}uLQAHwYBqG?o@@eFF_PD{R@iDFcFAYASCQEWEYWy@EIcAeCqDcJkGqO_A_CKSOOMKYOGGGIIOSWCEQUe@q@Wc@MSS_@a@_AY{@K[yEuOYiAe@wAKW[w@_@o@_BgCCUwBgDOWsBaDwA}B_@m@}DeGj@w@DKDD"}, "start_location": {"lat": 45.403611, "lng": -71.917847}, "transit_details": {"arrival_stop": {"location": {"lat": 45.412958, "lng": -71.884905}, "name": "Plateau Sylvie-Daigle"}, "arrival_time": {"text": "2:19pm", "time_zone": "America/Toronto", "value": 1522779575}, "departure_stop": {"location": {"lat": 45.403611, "lng": -71.917847}, "name": "boul. Jacques-Cartier Nord / boul. de Portland"}, "departure_time": {"text": "2:11pm", "time_zone": "America/Toronto", "value": 1522779060}, "headsign": "Station du C\u00e9gep", "line": {"agencies": [{"name": "Soci\u00e9t\u00e9 de Transport de Sherbrooke", "phone": "1 (819) 564-2687", "url": "http://www.sts.qc.ca/"}], "color": "#9e9e9e", "name": "Carrefour de l'Estrie <> Du Chalumeau", "short_name": "4", "text_color": "#ffffff", "vehicle": {"icon": "//maps.gstatic.com/mapfiles/transit/iw2/6/bus2.png", "name": "Bus", "type": "BUS"}}, "num_stops": 11}, "travel_mode": "TRANSIT"}, {"distance": {"text": "0.2 km", "value": 221}, "duration": {"text": "3 mins", "value": 155}, "end_location": {"lat": 45.4116885, "lng": -71.883163}, "html_instructions": "Walk to Parc Sylvie-Daigle, 400 Rue du C\u00e9gep, Sherbrooke, QC J1E 2J9, Canada", "polyline": {"points": "_vdtGr_wuLGKXc@NUv@_BT[DGBEFGJGHEJE@?b@MMiA`AW"}, "start_location": {"lat": 45.412958, "lng": -71.884905}, "steps": [{"distance": {"text": "0.2 km", "value": 153}, "duration": {"text": "2 mins", "value": 105}, "end_location": {"lat": 45.4119507, "lng": -71.8836501}, "html_instructions": "Head <b>southeast</b>", "polyline": {"points": "_vdtGr_wuLGKXc@NUv@_BT[DGBEFGJGHEJE@?b@M"}, "start_location": {"lat": 45.412958, "lng": -71.884905}, "travel_mode": "WALKING"}, {"distance": {"text": "30 m", "value": 30}, "duration": {"text": "1 min", "value": 25}, "end_location": {"lat": 45.4120228, "lng": -71.8832844}, "html_instructions": "Turn <b>left</b>", "maneuver": "turn-left", "polyline": {"points": "uodtGxwvuLMiA"}, "start_location": {"lat": 45.4119507, "lng": -71.8836501}, "travel_mode": "WALKING"}, {"distance": {"text": "38 m", "value": 38}, "duration": {"text": "1 min", "value": 25}, "end_location": {"lat": 45.4116885, "lng": -71.883163}, "html_instructions": "Turn <b>right</b><div style=\"font-size:0.9em\">Destination will be on the left</div>", "maneuver": "turn-right", "polyline": {"points": "cpdtGnuvuL`AW"}, "start_location": {"lat": 45.4120228, "lng": -71.8832844}, "travel_mode": "WALKING"}], "travel_mode": "WALKING"}], "traffic_speed_entry": [], "via_waypoint": []}], "overview_polyline": {"points": "_c~sGhx~uLCFOIU\\?X]?MhAE?GBGHAHDJ@@CHPnAEJShABLEFIZ?`@Az@M@{AAA`@{E?mAA?nAu@fAMSIDSo@w@yBw@aBeAcBiAkBiAgAmAiAwB{Ao@YqAg@iCu@q@WWOOUQw@CQ@}CBkCF{N@aCEuDqDLgAXc@TcBnAwHb@gLf@qH^_CDkLGOAQIqHG]EgPIqIEuAE?M?Ne@?@iBCWPGQALib@@uGL{c@HmKMwA]sAiAoC}LuZkAsC][a@Wi@w@}A_Cu@_Be@wAyEuOYiAq@oB[w@_@o@_BgCCUgC_EkE_H}EsHp@cADDGKh@y@v@_BT[HMROTKd@MMiA`AW"}, "summary": "", "warnings": ["Walking directions are in beta.    Use caution \u2013 This route may be missing sidewalks or pedestrian paths."], "waypoint_order": []}], "status": "OK"}