{"geocoded_waypoints": [{"geocoder_status": "OK", "place_id": "ChIJczwxWwWzt0wRzb4KUd8rLG0", "types": ["bus_station", "establishment", "point_of_interest", "transit_station"]}, {"geocoder_status": "OK", "partial_match": true, "place_id": "ChIJe8zDXfeyt0wRhGb4tdVBO2s", "types": ["bus_station", "establishment", "point_of_interest", "transit_station"]}], "routes": [{"bounds": {"northeast": {"lat": 45.414497, "lng": -71.861222}, "southwest": {"lat": 45.396223, "lng": -71.89697100000001}}, "copyrights": "Map data \u00a92018 Google", "fare": {"currency": "CAD", "text": "CA$3.30", "value": 3.3}, "legs": [{"arrival_time": {"text": "2:13pm", "time_zone": "America/Toronto", "value": 1522779232}, "departure_time": {"text": "1:55pm", "time_zone": "America/Toronto", "value": 1522778151}, "distance": {"text": "8.0 km", "value": 8041}, "duration": {"text": "18 mins", "value": 1081}, "end_address": "Sherbrooke, QC J1G 1S9, Canada", "end_location": {"lat": 45.401201, "lng": -71.861222}, "start_address": "80 Rue du D\u00e9p\u00f4t, Sherbrooke, QC J1H 5G1, Canada", "start_location": {"lat": 45.400363, "lng": -71.88848039999999}, "steps": [{"distance": {"text": "93 m", "value": 93}, "duration": {"text": "1 min", "value": 69}, "end_location": {"lat": 45.401253, "lng": -71.888683}, "html_instructions": "Walk to Station du D\u00e9p\u00f4t - Quai F", "polyline": {"points": "ggbtG~uwuL{@\\GBULQFC@o@DQW"}, "start_location": {"lat": 45.400363, "lng": -71.88848039999999}, "steps": [{"distance": {"text": "40 m", "value": 40}, "duration": {"text": "1 min", "value": 30}, "end_location": {"lat": 45.40070170000001, "lng": -71.8886495}, "html_instructions": "Head <b>north</b> on <b>Rue du D\u00e9p\u00f4t</b>", "polyline": {"points": "ggbtG~uwuL{@\\GB"}, "start_location": {"lat": 45.400363, "lng": -71.88848039999999}, "travel_mode": "WALKING"}, {"distance": {"text": "53 m", "value": 53}, "duration": {"text": "1 min", "value": 39}, "end_location": {"lat": 45.401253, "lng": -71.888683}, "html_instructions": "Slight <b>left</b> to stay on <b>Rue du D\u00e9p\u00f4t</b>", "maneuver": "turn-slight-left", "polyline": {"points": "kibtG`wwuLULQFC@o@DQW"}, "start_location": {"lat": 45.40070170000001, "lng": -71.8886495}, "travel_mode": "WALKING"}], "travel_mode": "WALKING"}, {"distance": {"text": "7.9 km", "value": 7948}, "duration": {"text": "17 mins", "value": 1012}, "end_location": {"lat": 45.401201, "lng": -71.861222}, "html_instructions": "Bus towards 13e Avenue / 24-Juin", "polyline": {"points": "ylbtGfwwuLF^]Pc@Ry@^oA}CI[m@uAc@eAKSQCYm@iEwKcAp@mEpCm@b@SPIJOVQ^CHW~@[`BSz@K^[t@KPCHGDgAjA_@^a@d@aArA_A|A]p@sArC[h@e@l@iDlCe@b@c@f@KNUZCBa@r@]v@[x@Yz@S~@Q|@M`AK`ACb@s@IW?UNmAzAkB`CQRONgA{BMKGAG?MJ_BpBe@`@OH_@LG?MICGCIIiAGm@?M@MHYfAwAlA{AjA{A|BwClFwGrGgIHKdAwAKW_@o@_BgCCUwBgDOWsBaDwA}B_@m@}DeGj@w@DKlAuBHYVq@LMFING`AUFV^`E?JBJDHHDF@F?HCLIDKBM?Mc@}DGm@zAc@x@]pDsCFED@HBBHv@pDHZjIw@nCWNE\\_@^e@V_@JMyAqCCEMCsBiD[s@Wc@AEGUG_@AO~BCfCB`F?hI?NALEd@WXUbAo@`JaGt@g@d@WZWp@W|A[XIdBk@`Be@v@WXGn@KD?PAV?u@{D[kBMq@G]E[e@mEc@gDIeAA[@[DYNw@DSBO~M_E`@MI_R?[m@@OBYFo@DC?uHBCMMB[DYF[JUHUHo@{IUwDASu@La@Bw@?[Aw@GmA]ME?sCCoCAuEAiFF?"}, "start_location": {"lat": 45.401253, "lng": -71.888683}, "transit_details": {"arrival_stop": {"location": {"lat": 45.401201, "lng": -71.861222}, "name": "Chalifoux / Longpr\u00e9"}, "arrival_time": {"text": "2:13pm", "time_zone": "America/Toronto", "value": 1522779232}, "departure_stop": {"location": {"lat": 45.401253, "lng": -71.888683}, "name": "Station du D\u00e9p\u00f4t - Quai F"}, "departure_time": {"text": "1:57pm", "time_zone": "America/Toronto", "value": 1522778220}, "headsign": "13e Avenue / 24-Juin", "line": {"agencies": [{"name": "Soci\u00e9t\u00e9 de Transport de Sherbrooke", "phone": "1 (819) 564-2687", "url": "http://www.sts.qc.ca/"}], "color": "#1b5e20", "name": "Du Manoir <> 13e avenue - du 24-Juin", "short_name": "55", "text_color": "#ffffff", "vehicle": {"icon": "//maps.gstatic.com/mapfiles/transit/iw2/6/bus2.png", "name": "Bus", "type": "BUS"}}, "num_stops": 32}, "travel_mode": "TRANSIT"}], "traffic_speed_entry": [], "via_waypoint": []}], "overview_polyline": {"points": "ggbtG~uwuLkBv@s@FQWF^aAd@y@^oA}Cw@qBo@yAQCYm@iEwKcAp@{FtD]\\a@v@[hAo@|Cg@tAOZoApAaAdAaArA_A|AqBdEaAvAoEpDo@v@Y^_AjBu@tBe@|BYbCCb@s@IW?UNyD|Ea@b@gA{BMKOAMJ_BpBu@j@g@LQQMsAG{@Jg@~IgLpQcUk@gA_BgCCUgC_EkE_H}EsHp@cAlAuBHYVq@LMVQ`AUFV^lEHTPFPCLIDKB[k@kFzAc@x@]xDyCNDz@zDHZjIw@~C]|@eAb@m@}AwCMCsBiDs@wAI[Io@~BCfCBjP?\\G~@m@dLqHzA_AZWp@WvBe@xGqBt@Kh@AgBwJyAwM?w@TqAHc@`OmEI{R}@DYFo@DyHBCMMBu@Lq@TUHo@{IWkEu@La@BsAAw@GmA]ME?sCEeJAiFF?"}, "summary": "", "warnings": ["Walking directions are in beta.    Use caution \u2013 This route may be missing sidewalks or pedestrian paths."], "waypoint_order": []}], "status": "OK"}