{"geocoded_waypoints": [{"geocoder_status": "OK", "place_id": "ChIJ_4Bie1Kzt0wRIQkO9HZY8Zo", "types": ["establishment", "point_of_interest"]}, {"geocoder_status": "OK", "place_id": "ChIJBUzKsl6yt0wRl32gIrmXTJU", "types": ["establishment", "park", "point_of_interest", "premise"]}], "routes": [{"bounds": {"northeast": {"lat": 45.41324400000001, "lng": -71.8490881}, "southwest": {"lat": 45.3796395, "lng": -71.9280435}}, "copyrights": "Map data \u00a92018 Google", "fare": {"currency": "CAD", "text": "CA$3.30", "value": 3.3}, "legs": [{"arrival_time": {"text": "2:31pm", "time_zone": "America/Toronto", "value": 1522780316}, "departure_time": {"text": "1:45pm", "time_zone": "America/Toronto", "value": 1522777542}, "distance": {"text": "10.6 km", "value": 10608}, "duration": {"text": "46 mins", "value": 2774}, "end_address": "Parc Desranleau, Sherbrooke, QC J1G 5K4, Canada", "end_location": {"lat": 45.4072373, "lng": -71.84915710000001}, "start_address": "2500 Bd de l'Universit\u00e9, Sherbrooke, QC J1K 2R1, Canada", "start_location": {"lat": 45.3798719, "lng": -71.92545539999999}, "steps": [{"distance": {"text": "0.5 km", "value": 467}, "duration": {"text": "5 mins", "value": 310}, "end_location": {"lat": 45.382214, "lng": -71.927936}, "html_instructions": "Walk to boul. de l'Universit\u00e9 / Cabana", "polyline": {"points": "eg~sGb}~uLVA@BBF@@CHL`ABLEJShABLEFEJCN?N?PAz@M@{AAA`@iB?qB?mAA?nAu@fAMS"}, "start_location": {"lat": 45.3798719, "lng": -71.92545539999999}, "steps": [{"distance": {"text": "14 m", "value": 14}, "duration": {"text": "1 min", "value": 12}, "end_location": {"lat": 45.3797465, "lng": -71.9254467}, "html_instructions": "Head <b>south</b>", "polyline": {"points": "eg~sGb}~uLVA"}, "start_location": {"lat": 45.3798719, "lng": -71.92545539999999}, "travel_mode": "WALKING"}, {"distance": {"text": "45 m", "value": 45}, "duration": {"text": "1 min", "value": 29}, "end_location": {"lat": 45.3796395, "lng": -71.9259694}, "html_instructions": "Turn <b>right</b> toward <b>Voie 7</b>", "maneuver": "turn-right", "polyline": {"points": "mf~sG`}~uL@BBF@@CHL`ABL"}, "start_location": {"lat": 45.3797465, "lng": -71.9254467}, "travel_mode": "WALKING"}, {"distance": {"text": "0.1 km", "value": 97}, "duration": {"text": "1 min", "value": 65}, "end_location": {"lat": 45.379836, "lng": -71.92712209999999}, "html_instructions": "Turn <b>right</b> onto <b>Voie 7</b>", "maneuver": "turn-right", "polyline": {"points": "we~sGh`_vLEJShABLEFEJCN?N?PAz@"}, "start_location": {"lat": 45.3796395, "lng": -71.9259694}, "travel_mode": "WALKING"}, {"distance": {"text": "60 m", "value": 60}, "duration": {"text": "1 min", "value": 38}, "end_location": {"lat": 45.380373, "lng": -71.92712329999999}, "html_instructions": "Turn <b>right</b> toward <b>Voie 5</b>", "maneuver": "turn-right", "polyline": {"points": "_g~sGng_vLM@{AA"}, "start_location": {"lat": 45.379836, "lng": -71.92712209999999}, "travel_mode": "WALKING"}, {"distance": {"text": "13 m", "value": 13}, "duration": {"text": "1 min", "value": 10}, "end_location": {"lat": 45.3803776, "lng": -71.92729109999999}, "html_instructions": "Turn <b>left</b> toward <b>Voie 5</b>", "maneuver": "turn-left", "polyline": {"points": "ij~sGng_vLA`@"}, "start_location": {"lat": 45.380373, "lng": -71.92712329999999}, "travel_mode": "WALKING"}, {"distance": {"text": "0.2 km", "value": 166}, "duration": {"text": "2 mins", "value": 109}, "end_location": {"lat": 45.3818663, "lng": -71.927281}, "html_instructions": "Turn <b>right</b> onto <b>Voie 5</b>", "maneuver": "turn-right", "polyline": {"points": "kj~sGph_vLiB?qB?mAA"}, "start_location": {"lat": 45.3803776, "lng": -71.92729109999999}, "travel_mode": "WALKING"}, {"distance": {"text": "31 m", "value": 31}, "duration": {"text": "1 min", "value": 20}, "end_location": {"lat": 45.3818701, "lng": -71.92768339999999}, "html_instructions": "Turn <b>left</b> onto <b>Voie 8</b>", "maneuver": "turn-left", "polyline": {"points": "us~sGnh_vL?nA"}, "start_location": {"lat": 45.3818663, "lng": -71.927281}, "travel_mode": "WALKING"}, {"distance": {"text": "41 m", "value": 41}, "duration": {"text": "1 min", "value": 27}, "end_location": {"lat": 45.382214, "lng": -71.927936}, "html_instructions": "Turn <b>right</b><div style=\"font-size:0.9em\">Destination will be on the right</div>", "maneuver": "turn-right", "polyline": {"points": "us~sG~j_vLu@fAMS"}, "start_location": {"lat": 45.3818701, "lng": -71.92768339999999}, "travel_mode": "WALKING"}], "travel_mode": "WALKING"}, {"distance": {"text": "9.2 km", "value": 9237}, "duration": {"text": "30 mins", "value": 1789}, "end_location": {"lat": 45.408733, "lng": -71.854444}, "html_instructions": "Bus towards Chardonnerets / Marika", "polyline": {"points": "yu~sGrl_vLIDSo@c@kASm@Yo@]q@]o@g@s@m@}@[m@OQUQUUMMc@e@i@c@iAy@m@a@SI[OqAg@iCu@YMWIWOOUK[E[CQ@}C@{B@OBmHBmE@iA?w@EwB?s@?I?gA?eC@iBAaB@gB@iHBoA@sC@[?C?E@Y?UAIBs@@IDeA?_@EeAG_@Qy@AAK_@oAaCc@s@uB}Dg@eAgA}B}@cC]o@IMWi@e@w@e@s@CG{@wAq@kAYg@IKO[{@oAIOgAmBOUQ[uCmEo@aAc@}@m@oBCOEQ[iAUgAIo@i@qCAEI]AICMSq@Sm@_@mA]}@e@{A}@oCWA]IsCKkA?u@@KDG?yCQgAAC?i@?KDu@^m@d@o@b@s@d@mEjCGBk@TA@k@`@a@\\cBfAoAz@UNYy@]u@c@s@sAqCCQAIcC}EsF}KU[s@\\IF}BpA_@^MNCBu@x@sCxCcAjAKJYOGGGIIOSWCEQUe@q@Wc@MSS_@a@_AY{@K[yEuOYiAe@wAKW[w@_@o@_BgCCUwBgDOWsBaDwA}B_@m@}DeGj@w@DKlAuBHYVq@LMFING`AUFV^`E?JBJDHHDF@F?HCLIDKBM?MQaBYiCzAc@x@]pDsCFED@HBBHv@pDHZjIw@nCWNE\\_@^e@V_@JMyAqCCEMCsBiD[s@Wc@AEGUG_@AOAyAG{@?wE?eL?qS?A?aF@qD?Y?{DCgNAaGAiGAiAAUKaBSmBKy@uA}HAGEWOkA?GGo@EaACw@Aq@@s@RmVB{ABaCP?"}, "start_location": {"lat": 45.382214, "lng": -71.927936}, "transit_details": {"arrival_stop": {"location": {"lat": 45.408733, "lng": -71.854444}, "name": "King Est (no.1518)"}, "arrival_time": {"text": "2:20pm", "time_zone": "America/Toronto", "value": 1522779642}, "departure_stop": {"location": {"lat": 45.382214, "lng": -71.927936}, "name": "boul. de l'Universit\u00e9 / Cabana"}, "departure_time": {"text": "1:50pm", "time_zone": "America/Toronto", "value": 1522777853}, "headsign": "Chardonnerets / Marika", "line": {"agencies": [{"name": "Soci\u00e9t\u00e9 de Transport de Sherbrooke", "phone": "1 (819) 564-2687", "url": "http://www.sts.qc.ca/"}], "color": "#994500", "name": "Universit\u00e9 de Sherbrooke <> des Chardonnerets", "short_name": "9", "text_color": "#ffffff", "vehicle": {"icon": "//maps.gstatic.com/mapfiles/transit/iw2/6/bus2.png", "name": "Bus", "type": "BUS"}}, "num_stops": 40}, "travel_mode": "TRANSIT"}, {"distance": {"text": "0.9 km", "value": 904}, "duration": {"text": "11 mins", "value": 676}, "end_location": {"lat": 45.4072373, "lng": -71.84915710000001}, "html_instructions": "Walk to Parc Desranleau, Sherbrooke, QC J1G 5K4, Canada", "polyline": {"points": "q{ctGfaquLM?@wABoCHS?A@C?CA_BAyAA}@VCTCf@CPBR@jD`A@?dBXjCV?{@DiEBuA?sA?sACgAAqAwDL{@?"}, "start_location": {"lat": 45.408733, "lng": -71.854444}, "steps": [{"distance": {"text": "91 m", "value": 91}, "duration": {"text": "1 min", "value": 68}, "end_location": {"lat": 45.4087684, "lng": -71.85328129999999}, "html_instructions": "Head <b>east</b> on <b>Rue King E</b>/<b>QC-112 E</b>", "polyline": {"points": "q{ctGfaquLM?@wABoC"}, "start_location": {"lat": 45.408733, "lng": -71.854444}, "travel_mode": "WALKING"}, {"distance": {"text": "0.1 km", "value": 111}, "duration": {"text": "1 min", "value": 89}, "end_location": {"lat": 45.40873740000001, "lng": -71.8518874}, "html_instructions": "Slight <b>right</b> to stay on <b>Rue King E</b>/<b>QC-112 E</b>", "maneuver": "turn-slight-right", "polyline": {"points": "y{ctG~ypuLHS?A@C?CA_BAyAA}@"}, "start_location": {"lat": 45.4087684, "lng": -71.85328129999999}, "travel_mode": "WALKING"}, {"distance": {"text": "0.3 km", "value": 305}, "duration": {"text": "4 mins", "value": 221}, "end_location": {"lat": 45.4060415, "lng": -71.85244089999999}, "html_instructions": "Turn <b>right</b> onto <b>Rue Galt E</b>", "maneuver": "turn-right", "polyline": {"points": "s{ctGhqpuLVCTCf@CPBR@jD`A@?dBXjCV"}, "start_location": {"lat": 45.40873740000001, "lng": -71.8518874}, "travel_mode": "WALKING"}, {"distance": {"text": "0.3 km", "value": 262}, "duration": {"text": "3 mins", "value": 194}, "end_location": {"lat": 45.4060224, "lng": -71.8490881}, "html_instructions": "Turn <b>left</b> onto <b>Chemin Galvin</b>", "maneuver": "turn-left", "polyline": {"points": "wjctGvtpuL?{@DiEBuA?sA?sACgAAqA"}, "start_location": {"lat": 45.4060415, "lng": -71.85244089999999}, "travel_mode": "WALKING"}, {"distance": {"text": "0.1 km", "value": 135}, "duration": {"text": "2 mins", "value": 104}, "end_location": {"lat": 45.4072373, "lng": -71.84915710000001}, "html_instructions": "Turn <b>left</b> onto <b>Rue Ovila-Beaudoin</b><div style=\"font-size:0.9em\">Destination will be on the left</div>", "maneuver": "turn-left", "polyline": {"points": "sjctGx_puLwDL{@?"}, "start_location": {"lat": 45.4060224, "lng": -71.8490881}, "travel_mode": "WALKING"}], "travel_mode": "WALKING"}], "traffic_speed_entry": [], "via_waypoint": []}], "overview_polyline": {"points": "eg~sGb}~uLVA@BDHCHL`ABLEJShABLKRC^AlAiB?A`@iB?_EA?nAu@fAMSIDw@{Bm@}A{@aBuAqBk@_A}A{AsB}AaAk@mBw@cDcAo@YOUK[Im@ByGJuQEmF?yKBqKDcFB_AB}ADeBEeAYyAMa@sBuD}CcGgA}B}@cCg@}@}@aBi@{@qCwEkAkBqA}BgFaIc@}@m@oBIa@[iAUgAs@aEQ{@g@_B}@kCcBkFWA]IsCKkA?u@@KDaDQkAAi@?KDu@^m@d@cBhAuEnCk@Tm@b@eCdBeBjAw@oBwBeEE[wJ{RU[s@\\gCxAgBlBwEdFKJYOOQ]g@sAqBa@s@{@{BeFqPYiAe@wAg@oA_CwDCUwBgDcCyDwBkD}DeGj@w@rAaC`@kATWNG`AUf@xEBVNNN@VMHY?MQaBYiCzAc@x@]pDsCLCLL`AlEzMoANE\\_@v@eAJMyAqCCEMCsBiD[s@Yi@Ou@CiBG{@?wE?w`@?cF@kECcTCkOC_BKaBSmBaBwJWsBMqBEiB\\__@P?M?DgFJ]CyDA}@VC|@Gd@DlD`AdBXjCVDeGBiDC{CAqAwDL{@?"}, "summary": "", "warnings": ["Walking directions are in beta.    Use caution \u2013 This route may be missing sidewalks or pedestrian paths."], "waypoint_order": []}], "status": "OK"}