{"geocoded_waypoints": [{"geocoder_status": "OK", "place_id": "ChIJx7e0axezt0wR2q2nteWlbGA", "types": ["bus_station", "establishment", "point_of_interest", "transit_station"]}, {"geocoder_status": "OK", "place_id": "ChIJBUzKsl6yt0wRl32gIrmXTJU", "types": ["establishment", "park", "point_of_interest", "premise"]}], "routes": [{"bounds": {"northeast": {"lat": 45.41324400000001, "lng": -71.8490881}, "southwest": {"lat": 45.3947231, "lng": -71.89867}}, "copyrights": "Map data \u00a92018 Google", "fare": {"currency": "CAD", "text": "CA$3.30", "value": 3.3}, "legs": [{"arrival_time": {"text": "2:31pm", "time_zone": "America/Toronto", "value": 1522780316}, "departure_time": {"text": "1:54pm", "time_zone": "America/Toronto", "value": 1522778050}, "distance": {"text": "7.1 km", "value": 7140}, "duration": {"text": "38 mins", "value": 2266}, "end_address": "Parc Desranleau, Sherbrooke, QC J1G 5K4, Canada", "end_location": {"lat": 45.4072373, "lng": -71.84915710000001}, "start_address": "Sherbrooke, QC J1H 4B5, Canada", "start_location": {"lat": 45.3947231, "lng": -71.8947573}, "steps": [{"distance": {"text": "0.2 km", "value": 223}, "duration": {"text": "3 mins", "value": 170}, "end_location": {"lat": 45.395865, "lng": -71.895999}, "html_instructions": "Walk to Belv\u00e9d\u00e8re Sud (le Centre Sherbrooke)", "polyline": {"points": "_datGf}xuLEl@AHEBE?M?qAEGjCAd@Cb@cBC@O"}, "start_location": {"lat": 45.3947231, "lng": -71.8947573}, "steps": [{"distance": {"text": "37 m", "value": 37}, "duration": {"text": "1 min", "value": 32}, "end_location": {"lat": 45.3948853, "lng": -71.89505980000001}, "html_instructions": "Head <b>west</b>", "polyline": {"points": "_datGf}xuLEl@AHEBE?M?"}, "start_location": {"lat": 45.3947231, "lng": -71.8947573}, "travel_mode": "WALKING"}, {"distance": {"text": "46 m", "value": 46}, "duration": {"text": "1 min", "value": 32}, "end_location": {"lat": 45.39529539999999, "lng": -71.8950275}, "html_instructions": "Slight <b>right</b> toward <b>Rue Belv\u00e9d\u00e8re S</b>", "maneuver": "turn-slight-right", "polyline": {"points": "aeatGb_yuLqAE"}, "start_location": {"lat": 45.3948853, "lng": -71.89505980000001}, "travel_mode": "WALKING"}, {"distance": {"text": "84 m", "value": 84}, "duration": {"text": "1 min", "value": 71}, "end_location": {"lat": 45.3953668, "lng": -71.8961003}, "html_instructions": "Turn <b>left</b> toward <b>Rue Belv\u00e9d\u00e8re S</b>", "maneuver": "turn-left", "polyline": {"points": "sgatG|~xuLGjCAd@Cb@"}, "start_location": {"lat": 45.39529539999999, "lng": -71.8950275}, "travel_mode": "WALKING"}, {"distance": {"text": "56 m", "value": 56}, "duration": {"text": "1 min", "value": 35}, "end_location": {"lat": 45.395865, "lng": -71.895999}, "html_instructions": "Turn <b>right</b> onto <b>Rue Belv\u00e9d\u00e8re S</b><div style=\"font-size:0.9em\">Destination will be on the right</div>", "maneuver": "turn-right", "polyline": {"points": "ahatGreyuLcBC@O"}, "start_location": {"lat": 45.3953668, "lng": -71.8961003}, "travel_mode": "WALKING"}], "travel_mode": "WALKING"}, {"distance": {"text": "6.0 km", "value": 6013}, "duration": {"text": "24 mins", "value": 1422}, "end_location": {"lat": 45.408733, "lng": -71.854444}, "html_instructions": "Bus towards Chardonnerets / Marika", "polyline": {"points": "ckatG~dyuL?Nu@@KDG?yCQgAAC?i@?KDu@^m@d@o@b@s@d@mEjCGBk@TA@k@`@a@\\cBfAoAz@UNYy@]u@c@s@sAqCCQAIcC}EsF}KU[s@\\IF}BpA_@^MNCBu@x@sCxCcAjAKJYOGGGIIOSWCEQUe@q@Wc@MSS_@a@_AY{@K[yEuOYiAe@wAKW[w@_@o@_BgCCUwBgDOWsBaDwA}B_@m@}DeGj@w@DKlAuBHYVq@LMFING`AUFV^`E?JBJDHHDF@F?HCLIDKBM?MQaBYiCzAc@x@]pDsCFED@HBBHv@pDHZjIw@nCWNE\\_@^e@V_@JMyAqCCEMCsBiD[s@Wc@AEGUG_@AOAyAG{@?wE?eL?qS?A?aF@qD?Y?{DCgNAaGAiGAiAAUKaBSmBKy@uA}HAGEWOkA?GGo@EaACw@Aq@@s@RmVB{ABaCP?"}, "start_location": {"lat": 45.395865, "lng": -71.895999}, "transit_details": {"arrival_stop": {"location": {"lat": 45.408733, "lng": -71.854444}, "name": "King Est (no.1518)"}, "arrival_time": {"text": "2:20pm", "time_zone": "America/Toronto", "value": 1522779642}, "departure_stop": {"location": {"lat": 45.395865, "lng": -71.895999}, "name": "Belv\u00e9d\u00e8re Sud (le Centre Sherbrooke)"}, "departure_time": {"text": "1:57pm", "time_zone": "America/Toronto", "value": 1522778220}, "headsign": "Chardonnerets / Marika", "line": {"agencies": [{"name": "Soci\u00e9t\u00e9 de Transport de Sherbrooke", "phone": "1 (819) 564-2687", "url": "http://www.sts.qc.ca/"}], "color": "#994500", "name": "Universit\u00e9 de Sherbrooke <> des Chardonnerets", "short_name": "9", "text_color": "#ffffff", "vehicle": {"icon": "//maps.gstatic.com/mapfiles/transit/iw2/6/bus2.png", "name": "Bus", "type": "BUS"}}, "num_stops": 28}, "travel_mode": "TRANSIT"}, {"distance": {"text": "0.9 km", "value": 904}, "duration": {"text": "11 mins", "value": 676}, "end_location": {"lat": 45.4072373, "lng": -71.84915710000001}, "html_instructions": "Walk to Parc Desranleau, Sherbrooke, QC J1G 5K4, Canada", "polyline": {"points": "q{ctGfaquLM?@wABoCHS?A@C?CA_BAyAA}@VCTCf@CPBR@jD`A@?dBXjCV?{@DiEBuA?sA?sACgAAqAwDL{@?"}, "start_location": {"lat": 45.408733, "lng": -71.854444}, "steps": [{"distance": {"text": "91 m", "value": 91}, "duration": {"text": "1 min", "value": 68}, "end_location": {"lat": 45.4087684, "lng": -71.85328129999999}, "html_instructions": "Head <b>east</b> on <b>Rue King E</b>/<b>QC-112 E</b>", "polyline": {"points": "q{ctGfaquLM?@wABoC"}, "start_location": {"lat": 45.408733, "lng": -71.854444}, "travel_mode": "WALKING"}, {"distance": {"text": "0.1 km", "value": 111}, "duration": {"text": "1 min", "value": 89}, "end_location": {"lat": 45.40873740000001, "lng": -71.8518874}, "html_instructions": "Slight <b>right</b> to stay on <b>Rue King E</b>/<b>QC-112 E</b>", "maneuver": "turn-slight-right", "polyline": {"points": "y{ctG~ypuLHS?A@C?CA_BAyAA}@"}, "start_location": {"lat": 45.4087684, "lng": -71.85328129999999}, "travel_mode": "WALKING"}, {"distance": {"text": "0.3 km", "value": 305}, "duration": {"text": "4 mins", "value": 221}, "end_location": {"lat": 45.4060415, "lng": -71.85244089999999}, "html_instructions": "Turn <b>right</b> onto <b>Rue Galt E</b>", "maneuver": "turn-right", "polyline": {"points": "s{ctGhqpuLVCTCf@CPBR@jD`A@?dBXjCV"}, "start_location": {"lat": 45.40873740000001, "lng": -71.8518874}, "travel_mode": "WALKING"}, {"distance": {"text": "0.3 km", "value": 262}, "duration": {"text": "3 mins", "value": 194}, "end_location": {"lat": 45.4060224, "lng": -71.8490881}, "html_instructions": "Turn <b>left</b> onto <b>Chemin Galvin</b>", "maneuver": "turn-left", "polyline": {"points": "wjctGvtpuL?{@DiEBuA?sA?sACgAAqA"}, "start_location": {"lat": 45.4060415, "lng": -71.85244089999999}, "travel_mode": "WALKING"}, {"distance": {"text": "0.1 km", "value": 135}, "duration": {"text": "2 mins", "value": 104}, "end_location": {"lat": 45.4072373, "lng": -71.84915710000001}, "html_instructions": "Turn <b>left</b> onto <b>Rue Ovila-Beaudoin</b><div style=\"font-size:0.9em\">Destination will be on the left</div>", "maneuver": "turn-left", "polyline": {"points": "sjctGx_puLwDL{@?"}, "start_location": {"lat": 45.4060224, "lng": -71.8490881}, "travel_mode": "WALKING"}], "travel_mode": "WALKING"}], "traffic_speed_entry": [], "via_waypoint": []}], "overview_polyline": {"points": "_datGf}xuLEl@GLS?qAEGjCEhAcBC@O?Nu@@KDG?yCQgAAm@?aAd@}AhAiGtDm@VmA~@sDbCUNYy@aAiBsAqCCQeCgFsF}KU[}@d@}BpA_@^QRiErEoAvAa@Wi@w@}A_Cu@_Be@wAyEuOYiAq@oB[w@_@o@_BgCCUgC_EkE_H}EsHp@cAlAuBHYVq@LMVQ`AUFV^lEHTPFPCLIDKB[k@kFzAc@x@]xDyCNDz@zDHZjIw@~C]|@eAb@m@}AwCMCsBiDs@wAI[Io@AyAG{@?}R@g`@E_]CsIMwB_@gDwAeI]{CIyB?eBViYBaCP?M?@wABoCHS@EAcBCwCl@Gx@?R@jD`AfBXjCV?{@H_H?gDEyCwDL{@?"}, "summary": "", "warnings": ["Walking directions are in beta.    Use caution \u2013 This route may be missing sidewalks or pedestrian paths."], "waypoint_order": []}], "status": "OK"}