{"geocoded_waypoints": [{"geocoder_status": "OK", "place_id": "ChIJ2QHYVEuzt0wRCkczUGODyEA", "types": ["establishment", "point_of_interest", "university"]}, {"geocoder_status": "OK", "place_id": "ChIJ-9tiEU2yt0wRPn7WRCC51SE", "types": ["establishment", "park", "point_of_interest"]}], "routes": [{"bounds": {"northeast": {"lat": 45.4153592, "lng": -71.86108639999999}, "southwest": {"lat": 45.3740865, "lng": -71.93311039999999}}, "copyrights": "Map data \u00a92018 Google", "fare": {"currency": "CAD", "text": "CA$3.30", "value": 3.3}, "legs": [{"arrival_time": {"text": "2:57pm", "time_zone": "America/Toronto", "value": 1522781879}, "departure_time": {"text": "2:09pm", "time_zone": "America/Toronto", "value": 1522778944}, "distance": {"text": "10.6 km", "value": 10621}, "duration": {"text": "49 mins", "value": 2935}, "end_address": "Des Jardins-Fleuris, 1245 Rue Papineau, Sherbrooke, QC J1E 4C4, Canada", "end_location": {"lat": 45.4153368, "lng": -71.86186940000002}, "start_address": "2500 Boulevard de l'Universit\u00e9, Sherbrooke, QC J1K 2R1, Canada", "start_location": {"lat": 45.3740865, "lng": -71.93285139999999}, "steps": [{"distance": {"text": "0.9 km", "value": 940}, "duration": {"text": "11 mins", "value": 689}, "end_location": {"lat": 45.381401, "lng": -71.930557}, "html_instructions": "Walk to boul. de l'Universit\u00e9 / Prunier", "polyline": {"points": "ac}sGhk`vLu@B_EF]@]@W?WBi@@qAB_@@aAHu@FM?YBA?G?o@@]AM?kGE_CBC_@AWEQIMGGMGaAk@GEEIEKGSEWAWAKAa@GWGUKSGOSEcA]@OAGOSEAM@Ac@PQ"}, "start_location": {"lat": 45.3740865, "lng": -71.93285139999999}, "steps": [{"distance": {"text": "0.7 km", "value": 651}, "duration": {"text": "8 mins", "value": 466}, "end_location": {"lat": 45.3799343, "lng": -71.93308569999999}, "html_instructions": "Head <b>north</b> on <b>Chemin de Sainte-Catherine</b>/<b>QC-216 E</b>", "polyline": {"points": "ac}sGhk`vLu@B_EF]@]@W?WBi@@qAB_@@aAHu@FM?YBA?G?o@@]AM?kGE_CB"}, "start_location": {"lat": 45.3740865, "lng": -71.93285139999999}, "travel_mode": "WALKING"}, {"distance": {"text": "0.2 km", "value": 192}, "duration": {"text": "3 mins", "value": 157}, "end_location": {"lat": 45.3808612, "lng": -71.9312252}, "html_instructions": "Turn <b>right</b> onto <b>Voie 12</b>", "maneuver": "turn-right", "polyline": {"points": "qg~sGxl`vLC_@AWEQIMGGMGaAk@GEEIEKGSEWAWAKAa@GWGUKSGO"}, "start_location": {"lat": 45.3799343, "lng": -71.93308569999999}, "travel_mode": "WALKING"}, {"distance": {"text": "83 m", "value": 83}, "duration": {"text": "1 min", "value": 55}, "end_location": {"lat": 45.3814774, "lng": -71.9308346}, "html_instructions": "Slight <b>left</b> to stay on <b>Voie 12</b>", "maneuver": "turn-slight-left", "polyline": {"points": "km~sGda`vLSEcA]@OAGOSEAM@"}, "start_location": {"lat": 45.3808612, "lng": -71.9312252}, "travel_mode": "WALKING"}, {"distance": {"text": "14 m", "value": 14}, "duration": {"text": "1 min", "value": 11}, "end_location": {"lat": 45.381401, "lng": -71.930557}, "html_instructions": "Turn <b>right</b> onto <b>Boulevard de l'Universit\u00e9</b>/<b>QC-216 E</b>", "maneuver": "turn-right", "polyline": {"points": "gq~sGt~_vLAc@PQ"}, "start_location": {"lat": 45.3814774, "lng": -71.9308346}, "travel_mode": "WALKING"}], "travel_mode": "WALKING"}, {"distance": {"text": "8.9 km", "value": 8931}, "duration": {"text": "27 mins", "value": 1591}, "end_location": {"lat": 45.408681, "lng": -71.861158}, "html_instructions": "Bus towards Chardonnerets / Marika", "polyline": {"points": "wp~sG~|_vLK@AOC_@Io@U}A_AwDm@wBKYSo@c@kASm@Yo@]q@]o@g@s@m@}@[m@OQUQUUMMc@e@i@c@iAy@m@a@SI[OqAg@iCu@YMWIWOOUK[E[CQ@}C@{B@OBmHBmE@iA?w@EwB?s@?I?gA?eC@iBAaB@gB@iHBoA@sC@[?C?E@Y?UAIBs@@IDeA?_@EeAG_@Qy@AAK_@oAaCc@s@uB}Dg@eAgA}B}@cC]o@IMWi@e@w@e@s@CG{@wAq@kAYg@IKO[{@oAIOgAmBOUQ[uCmEo@aAc@}@m@oBCOEQ[iAUgAIo@i@qCAEI]AICMSq@Sm@_@mA]}@e@{A}@oCWA]IsCKkA?u@@KDG?yCQgAAC?i@?KDu@^m@d@o@b@s@d@mEjCGBk@TA@k@`@a@\\cBfAoAz@UNYy@]u@c@s@sAqCCQAIcC}EsF}KU[s@\\IF}BpA_@^MNCBu@x@sCxCcAjAKJYOGGGIIOSWCEQUe@q@Wc@MSS_@a@_AY{@K[yEuOYiAe@wAKW[w@_@o@_BgCCUwBgDOWsBaDwA}B_@m@}DeGj@w@DKlAuBHYVq@LMFING`AUFV^`E?JBJDHHDF@F?HCLIDKBM?MQaBYiCzAc@x@]pDsCFED@HBBHv@pDHZjIw@nCWNE\\_@^e@V_@JMyAqCCEMCsBiD[s@Wc@AEGUG_@AOAyAG{@?wE?eL?qS?A?aF@qD?Y?{DCgNAaGAiGAiAAUKaBSmBKy@uA}HAGNG"}, "start_location": {"lat": 45.381401, "lng": -71.930557}, "transit_details": {"arrival_stop": {"location": {"lat": 45.408681, "lng": -71.861158}, "name": "King Est / 20e av. Nord"}, "arrival_time": {"text": "2:47pm", "time_zone": "America/Toronto", "value": 1522781224}, "departure_stop": {"location": {"lat": 45.381401, "lng": -71.930557}, "name": "boul. de l'Universit\u00e9 / Prunier"}, "departure_time": {"text": "2:20pm", "time_zone": "America/Toronto", "value": 1522779633}, "headsign": "Chardonnerets / Marika", "line": {"agencies": [{"name": "Soci\u00e9t\u00e9 de Transport de Sherbrooke", "phone": "1 (819) 564-2687", "url": "http://www.sts.qc.ca/"}], "color": "#994500", "name": "Universit\u00e9 de Sherbrooke <> des Chardonnerets", "short_name": "9", "text_color": "#ffffff", "vehicle": {"icon": "//maps.gstatic.com/mapfiles/transit/iw2/6/bus2.png", "name": "Bus", "type": "BUS"}}, "num_stops": 39}, "travel_mode": "TRANSIT"}, {"distance": {"text": "0.8 km", "value": 750}, "duration": {"text": "11 mins", "value": 645}, "end_location": {"lat": 45.4153368, "lng": -71.86186940000002}, "html_instructions": "Walk to Des Jardins-Fleuris, 1245 Rue Papineau, Sherbrooke, QC J1E 4C4, Canada", "polyline": {"points": "g{ctGfkruLOFEUmGFmBHiIViCD}@BqCNgCJK@A?KDe@PULWNKFBJ"}, "start_location": {"lat": 45.408681, "lng": -71.861158}, "steps": [{"distance": {"text": "9 m", "value": 9}, "duration": {"text": "1 min", "value": 8}, "end_location": {"lat": 45.4087877, "lng": -71.86108639999999}, "html_instructions": "Head <b>east</b> on <b>QC-112 E</b> toward <b>20e Avenue N</b>", "polyline": {"points": "g{ctGfkruLOFEU"}, "start_location": {"lat": 45.408681, "lng": -71.861158}, "travel_mode": "WALKING"}, {"distance": {"text": "0.7 km", "value": 736}, "duration": {"text": "11 mins", "value": 633}, "end_location": {"lat": 45.4153592, "lng": -71.8618086}, "html_instructions": "Turn <b>left</b> onto <b>20e Avenue N</b>", "maneuver": "turn-left", "polyline": {"points": "}{ctGxjruLmGFmBHiIViCD}@BqCNgCJK@A?KDe@PULWNKF"}, "start_location": {"lat": 45.4087877, "lng": -71.86108639999999}, "travel_mode": "WALKING"}, {"distance": {"text": "5 m", "value": 5}, "duration": {"text": "1 min", "value": 4}, "end_location": {"lat": 45.4153368, "lng": -71.86186940000002}, "html_instructions": "Turn <b>left</b> onto <b>Rue Papineau</b><div style=\"font-size:0.9em\">Destination will be on the right</div>", "maneuver": "turn-left", "polyline": {"points": "_eetGhoruLBJ"}, "start_location": {"lat": 45.4153592, "lng": -71.8618086}, "travel_mode": "WALKING"}], "travel_mode": "WALKING"}], "traffic_speed_entry": [], "via_waypoint": []}], "overview_polyline": {"points": "ac}sGhk`vL}MXeDRsADk@AkGE_CBEw@O_@_BaAKUMk@Cc@Iy@Si@GOSEcA]@OQ[S?Ac@PQK@AOMoAU}A_AwDy@qCw@{Bm@}A{@aBuAqBk@_Ak@g@q@s@sB}AaAk@mBw@cDcAo@YOUK[Im@HwQDwGEoD?kGB}QFcG?_AJcDEeAYyAMa@sBuD}CcGgA}B}@cCg@}@}@aBwC_FoB_DsBoDeEoGc@}@m@oBIa@[iAUgAs@aEKc@EWg@_B}@kCcBkFWA]IsCKkA?u@@KDaDQkAAi@?KDu@^m@d@cBhAuEnCk@Tm@b@eCdBeBjAw@oBwBeEE[wJ{RU[s@\\gCxAm@n@y@|@wEdFKJYOOQs@cA_BiC{@{BeFqPYiAe@wAg@oA_CwDCUwBgDcCyDwBkD}DeGj@w@rAaC`@kATWNG`AUf@xEBVNNN@VMHY?MQaBYiCzAc@x@]pDsCLCLL`AlEzMoANE\\_@v@eAJMyAqCCEMCsBiD[s@Yi@Ou@CiBG{@?wE?w`@@oLGod@C_BKaBSmBaBwJAGNGOFEUmGFmBHsM\\oERsCLMD{@^c@VBJ"}, "summary": "", "warnings": ["Walking directions are in beta.    Use caution \u2013 This route may be missing sidewalks or pedestrian paths."], "waypoint_order": []}], "status": "OK"}