{"geocoded_waypoints": [{"geocoder_status": "OK", "place_id": "ChIJczwxWwWzt0wRzb4KUd8rLG0", "types": ["bus_station", "establishment", "point_of_interest", "transit_station"]}, {"geocoder_status": "OK", "place_id": "ChIJhfR8J-myt0wRxVfQG1CXw0o", "types": ["bus_station", "establishment", "point_of_interest", "transit_station"]}], "routes": [{"bounds": {"northeast": {"lat": 45.402229, "lng": -71.86508909999999}, "southwest": {"lat": 45.3903659, "lng": -71.88919}}, "copyrights": "Map data \u00a92018 Google", "fare": {"currency": "CAD", "text": "CA$3.30", "value": 3.3}, "legs": [{"arrival_time": {"text": "3:27pm", "time_zone": "America/Toronto", "value": 1523215651}, "departure_time": {"text": "3:03pm", "time_zone": "America/Toronto", "value": 1523214231}, "distance": {"text": "3.1 km", "value": 3132}, "duration": {"text": "24 mins", "value": 1420}, "end_address": "Sherbrooke, QC J1G 2A2, Canada", "end_location": {"lat": 45.3904645, "lng": -71.86508909999999}, "start_address": "80 Rue du D\u00e9p\u00f4t, Sherbrooke, QC J1H 5G1, Canada", "start_location": {"lat": 45.400363, "lng": -71.88848039999999}, "steps": [{"distance": {"text": "93 m", "value": 93}, "duration": {"text": "1 min", "value": 69}, "end_location": {"lat": 45.401253, "lng": -71.888683}, "html_instructions": "Walk to Station du D\u00e9p\u00f4t - Quai F", "polyline": {"points": "ggbtG~uwuL{@\\GBULQFC@o@DQW"}, "start_location": {"lat": 45.400363, "lng": -71.88848039999999}, "steps": [{"distance": {"text": "40 m", "value": 40}, "duration": {"text": "1 min", "value": 30}, "end_location": {"lat": 45.40070170000001, "lng": -71.8886495}, "html_instructions": "Head <b>north</b> on <b>Rue du D\u00e9p\u00f4t</b>", "polyline": {"points": "ggbtG~uwuL{@\\GB"}, "start_location": {"lat": 45.400363, "lng": -71.88848039999999}, "travel_mode": "WALKING"}, {"distance": {"text": "53 m", "value": 53}, "duration": {"text": "1 min", "value": 39}, "end_location": {"lat": 45.401253, "lng": -71.888683}, "html_instructions": "Slight <b>left</b> to stay on <b>Rue du D\u00e9p\u00f4t</b>", "maneuver": "turn-slight-left", "polyline": {"points": "kibtG`wwuLULQFC@o@DQW"}, "start_location": {"lat": 45.40070170000001, "lng": -71.8886495}, "travel_mode": "WALKING"}], "travel_mode": "WALKING"}, {"distance": {"text": "1.6 km", "value": 1556}, "duration": {"text": "3 mins", "value": 175}, "end_location": {"lat": 45.3954, "lng": -71.879941}, "html_instructions": "Bus towards 13e Avenue / 24-Juin", "polyline": {"points": "ylbtGfwwuLF^]Pc@Ry@^oA}C^W^K^I|AK^In@UxDaB~LiFrAo@lDeB^S\\Yj@c@n@]j@[d@Uv@YPGNIl@UFGFIbA]b@YNYDK@a@?[EKOWGIMICCCCIEICo@Qq@]_DiQPI"}, "start_location": {"lat": 45.401253, "lng": -71.888683}, "transit_details": {"arrival_stop": {"location": {"lat": 45.3954, "lng": -71.879941}, "name": "\u00c9cole De la Mont\u00e9e - Pavillon Saint-Fran\u00e7ois"}, "arrival_time": {"text": "3:07pm", "time_zone": "America/Toronto", "value": 1523214475}, "departure_stop": {"location": {"lat": 45.401253, "lng": -71.888683}, "name": "Station du D\u00e9p\u00f4t - Quai F"}, "departure_time": {"text": "3:05pm", "time_zone": "America/Toronto", "value": 1523214300}, "headsign": "13e Avenue / 24-Juin", "line": {"agencies": [{"name": "Soci\u00e9t\u00e9 de Transport de Sherbrooke", "phone": "1 (819) 564-2687", "url": "http://www.sts.qc.ca/"}], "color": "#80deea", "name": "Carrefour de l'Estrie <> 13e avenue - du 24-Juin", "short_name": "57", "text_color": "#000000", "vehicle": {"icon": "//maps.gstatic.com/mapfiles/transit/iw2/6/bus2.png", "name": "Bus", "type": "BUS"}}, "num_stops": 4}, "travel_mode": "TRANSIT"}, {"distance": {"text": "1.5 km", "value": 1483}, "duration": {"text": "20 mins", "value": 1176}, "end_location": {"lat": 45.3904645, "lng": -71.86508909999999}, "html_instructions": "Walk to Sherbrooke, QC J1G 2A2, Canada", "polyline": {"points": "ghatGr`vuLKDm@{Dw@uElAy@nDcCxAgAbGmG|AaBx@uAlBsCjBcDpCuEC{OMwW"}, "start_location": {"lat": 45.3954, "lng": -71.879941}, "steps": [{"distance": {"text": "0.2 km", "value": 167}, "duration": {"text": "2 mins", "value": 145}, "end_location": {"lat": 45.3959722, "lng": -71.87796349999999}, "html_instructions": "Head <b>east</b> on <b>Rue Galt E</b>/<b>QC-216 E</b> toward <b>Rue Bowen S</b>", "polyline": {"points": "ghatGr`vuLKDm@{Dw@uE"}, "start_location": {"lat": 45.3954, "lng": -71.879941}, "travel_mode": "WALKING"}, {"distance": {"text": "0.8 km", "value": 796}, "duration": {"text": "11 mins", "value": 644}, "end_location": {"lat": 45.3903659, "lng": -71.8717482}, "html_instructions": "Turn <b>right</b> onto <b>Rue Bowen S</b>", "maneuver": "turn-right", "polyline": {"points": "ykatGftuuLlAy@nDcCxAgAbGmG|AaBx@uAlBsCjBcDpCuE"}, "start_location": {"lat": 45.3959722, "lng": -71.87796349999999}, "travel_mode": "WALKING"}, {"distance": {"text": "0.5 km", "value": 520}, "duration": {"text": "6 mins", "value": 387}, "end_location": {"lat": 45.3904645, "lng": -71.86508909999999}, "html_instructions": "Turn <b>left</b> onto <b>Rue de Caen</b><div style=\"font-size:0.9em\">Destination will be on the right</div>", "maneuver": "turn-left", "polyline": {"points": "yh`tGlmtuLC{OMwW"}, "start_location": {"lat": 45.3903659, "lng": -71.8717482}, "travel_mode": "WALKING"}], "travel_mode": "WALKING"}], "traffic_speed_entry": [], "via_waypoint": []}], "overview_polyline": {"points": "ggbtG~uwuLkBv@s@FQWF^aAd@y@^oA}C^W^K|BUnA_@xRkI`GuC|@m@j@c@n@]pAq@fCaANQbA]b@YTe@@}@Uc@US[Qo@Qq@]_DiQPIKDm@{Dw@uElAy@hGkE`JoJfDiF|FyJC{OMwW"}, "summary": "", "warnings": ["Walking directions are in beta.    Use caution \u2013 This route may be missing sidewalks or pedestrian paths."], "waypoint_order": []}], "status": "OK"}