{"geocoded_waypoints": [{"geocoder_status": "OK", "partial_match": true, "place_id": "ChIJBUnsLhGzt0wRgJewKc9fr84", "types": ["establishment", "point_of_interest", "shopping_mall"]}, {"geocoder_status": "OK", "place_id": "ChIJ-zEMMkuyt0wRQxomG3wMq7w", "types": ["bus_station", "establishment", "point_of_interest", "transit_station"]}], "routes": [{"bounds": {"northeast": {"lat": 45.4218291, "lng": -71.8617076}, "southwest": {"lat": 45.3952868, "lng": -71.89867}}, "copyrights": "Map data \u00a92018 Google", "fare": {"currency": "CAD", "text": "CA$3.30", "value": 3.3}, "legs": [{"arrival_time": {"text": "2:27pm", "time_zone": "America/Toronto", "value": 1522780068}, "departure_time": {"text": "1:54pm", "time_zone": "America/Toronto", "value": 1522778097}, "distance": {"text": "6.7 km", "value": 6744}, "duration": {"text": "33 mins", "value": 1971}, "end_address": "Sherbrooke, QC J1E 0A7, Canada", "end_location": {"lat": 45.4215288, "lng": -71.8617076}, "start_address": "340 Rue Belv\u00e9d\u00e8re S, Sherbrooke, QC J1H 4B5, Canada", "start_location": {"lat": 45.3952868, "lng": -71.8947781}, "steps": [{"distance": {"text": "0.2 km", "value": 160}, "duration": {"text": "2 mins", "value": 122}, "end_location": {"lat": 45.395865, "lng": -71.895999}, "html_instructions": "Walk to Belv\u00e9d\u00e8re Sud (le Centre Sherbrooke)", "polyline": {"points": "qgatGj}xuLAp@GjCAd@Cb@cBC@O"}, "start_location": {"lat": 45.3952868, "lng": -71.8947781}, "steps": [{"distance": {"text": "0.1 km", "value": 104}, "duration": {"text": "1 min", "value": 87}, "end_location": {"lat": 45.3953668, "lng": -71.8961003}, "html_instructions": "Head <b>west</b> toward <b>Rue Belv\u00e9d\u00e8re S</b>", "polyline": {"points": "qgatGj}xuLAp@GjCAd@Cb@"}, "start_location": {"lat": 45.3952868, "lng": -71.8947781}, "travel_mode": "WALKING"}, {"distance": {"text": "56 m", "value": 56}, "duration": {"text": "1 min", "value": 35}, "end_location": {"lat": 45.395865, "lng": -71.895999}, "html_instructions": "Turn <b>right</b> onto <b>Rue Belv\u00e9d\u00e8re S</b><div style=\"font-size:0.9em\">Destination will be on the right</div>", "maneuver": "turn-right", "polyline": {"points": "ahatGreyuLcBC@O"}, "start_location": {"lat": 45.3953668, "lng": -71.8961003}, "travel_mode": "WALKING"}], "travel_mode": "WALKING"}, {"distance": {"text": "2.7 km", "value": 2677}, "duration": {"text": "10 mins", "value": 594}, "end_location": {"lat": 45.412958, "lng": -71.884905}, "html_instructions": "Bus towards Chardonnerets / Marika", "polyline": {"points": "ckatG~dyuL?Nu@@KDG?yCQgAAC?i@?KDu@^m@d@o@b@s@d@mEjCGBk@TA@k@`@a@\\cBfAoAz@UNYy@]u@c@s@sAqCCQAIcC}EsF}KU[s@\\IF}BpA_@^MNCBu@x@sCxCcAjAKJYOGGGIIOSWCEQUe@q@Wc@MSS_@a@_AY{@K[yEuOYiAe@wAKW[w@_@o@_BgCCUwBgDOWsBaDwA}B_@m@}DeGj@w@DKDD"}, "start_location": {"lat": 45.395865, "lng": -71.895999}, "transit_details": {"arrival_stop": {"location": {"lat": 45.412958, "lng": -71.884905}, "name": "Plateau Sylvie-Daigle"}, "arrival_time": {"text": "2:06pm", "time_zone": "America/Toronto", "value": 1522778814}, "departure_stop": {"location": {"lat": 45.395865, "lng": -71.895999}, "name": "Belv\u00e9d\u00e8re Sud (le Centre Sherbrooke)"}, "departure_time": {"text": "1:57pm", "time_zone": "America/Toronto", "value": 1522778220}, "headsign": "Chardonnerets / Marika", "line": {"agencies": [{"name": "Soci\u00e9t\u00e9 de Transport de Sherbrooke", "phone": "1 (819) 564-2687", "url": "http://www.sts.qc.ca/"}], "color": "#994500", "name": "Universit\u00e9 de Sherbrooke <> des Chardonnerets", "short_name": "9", "text_color": "#ffffff", "vehicle": {"icon": "//maps.gstatic.com/mapfiles/transit/iw2/6/bus2.png", "name": "Bus", "type": "BUS"}}, "num_stops": 12}, "travel_mode": "TRANSIT"}, {"distance": {"text": "2 m", "value": 2}, "duration": {"text": "1 min", "value": 1}, "end_location": {"lat": 45.413062, "lng": -71.884778}, "html_instructions": "Walk to Plateau Sylvie-Daigle", "polyline": {"points": "_vdtGr_wuLGKA@IM"}, "start_location": {"lat": 45.412958, "lng": -71.884905}, "steps": [{"distance": {"text": "2 m", "value": 2}, "duration": {"text": "1 min", "value": 1}, "end_location": {"lat": 45.413062, "lng": -71.884778}, "html_instructions": "Head <b>northwest</b> toward <b>Rue Terrill</b>", "polyline": {"points": "_vdtGr_wuLGKA@IM"}, "start_location": {"lat": 45.412958, "lng": -71.884905}, "travel_mode": "WALKING"}], "travel_mode": "WALKING"}, {"distance": {"text": "3.7 km", "value": 3685}, "duration": {"text": "10 mins", "value": 577}, "end_location": {"lat": 45.42139, "lng": -71.86363}, "html_instructions": "Bus towards 13e Avenue / 24-Juin", "polyline": {"points": "svdtGz~vuLBDY`@Y\\oByC[SIK}AeCOa@iCgEO_@ESI_@My@G{@Gi@A}@@{@|@i@nAy@lA_AVOb@Y^S?AJIRItAc@_AsHG]MoB]_DACCYdBEnFC|ICx@AeAiEcAoE_@{A]wAAG_AuDG[k@cCGUnAi@\\Ix@KrBA@yD?YAoC?eCAsAAsAkMFmADK?e@}AaAsDu@d@IDG@M@sCLcAH}BLW?wADwANI@{EeB{BaAOIh@oDeDkAw@[wAw@y@_@s@]c@QOCa@ASD]JCU"}, "start_location": {"lat": 45.413062, "lng": -71.884778}, "transit_details": {"arrival_stop": {"location": {"lat": 45.42139, "lng": -71.86363}, "name": "des Lys / des Quatre-Saisons"}, "arrival_time": {"text": "2:25pm", "time_zone": "America/Toronto", "value": 1522779904}, "departure_stop": {"location": {"lat": 45.413062, "lng": -71.884778}, "name": "Plateau Sylvie-Daigle"}, "departure_time": {"text": "2:15pm", "time_zone": "America/Toronto", "value": 1522779327}, "headsign": "13e Avenue / 24-Juin", "line": {"agencies": [{"name": "Soci\u00e9t\u00e9 de Transport de Sherbrooke", "phone": "1 (819) 564-2687", "url": "http://www.sts.qc.ca/"}], "color": "#0277bd", "name": "Carrefour de l'Estrie <> 13e avenue - du 24-Juin", "short_name": "3", "text_color": "#ffffff", "vehicle": {"icon": "//maps.gstatic.com/mapfiles/transit/iw2/6/bus2.png", "name": "Bus", "type": "BUS"}}, "num_stops": 17}, "travel_mode": "TRANSIT"}, {"distance": {"text": "0.2 km", "value": 220}, "duration": {"text": "3 mins", "value": 155}, "end_location": {"lat": 45.4215288, "lng": -71.8617076}, "html_instructions": "Walk to Sherbrooke, QC J1E 0A7, Canada", "polyline": {"points": "ujftGtzruL@Hi@R]oBGc@Cg@A[C{B@cAx@E"}, "start_location": {"lat": 45.42139, "lng": -71.86363}, "steps": [{"distance": {"text": "25 m", "value": 25}, "duration": {"text": "1 min", "value": 18}, "end_location": {"lat": 45.4215919, "lng": -71.86378239999999}, "html_instructions": "Head <b>north</b> on <b>Rue des Lys</b> toward <b>Rue des Quatre-Saisons</b>", "polyline": {"points": "ujftGtzruL@Hi@R"}, "start_location": {"lat": 45.42139, "lng": -71.86363}, "travel_mode": "WALKING"}, {"distance": {"text": "0.2 km", "value": 163}, "duration": {"text": "2 mins", "value": 112}, "end_location": {"lat": 45.4218178, "lng": -71.8617439}, "html_instructions": "Turn <b>right</b> onto <b>Rue des Quatre-Saisons</b>", "maneuver": "turn-right", "polyline": {"points": "}kftGr{ruL]oBGc@Cg@A[C{B@cA"}, "start_location": {"lat": 45.4215919, "lng": -71.86378239999999}, "travel_mode": "WALKING"}, {"distance": {"text": "32 m", "value": 32}, "duration": {"text": "1 min", "value": 25}, "end_location": {"lat": 45.4215288, "lng": -71.8617076}, "html_instructions": "Turn <b>right</b> onto <b>Rue des Capucines</b><div style=\"font-size:0.9em\">Destination will be on the left</div>", "maneuver": "turn-right", "polyline": {"points": "kmftGznruLx@E"}, "start_location": {"lat": 45.4218178, "lng": -71.8617439}, "travel_mode": "WALKING"}], "travel_mode": "WALKING"}], "traffic_speed_entry": [], "via_waypoint": []}], "overview_polyline": {"points": "qgatGj}xuLOfGcBC@O?Nu@@KDG?yCQgAAm@?aAd@}AhAaGpDu@ZmA~@sDbCUNYy@aAiBsAqCCQeCgFsF}KU[}@d@}BpA_@^QRyGjHa@WQYoAeBe@w@u@_Be@wAyEuOYiAq@oB[w@_@o@_BgCCUgC_EkE_H}EsHp@cADDGKA@IMBDY`@Y\\oByC[SIK}AeCOa@iCgEO_@Os@UuBGi@A}@@{@|@i@|CyBz@i@~@i@tAc@_AsHUmCc@}DtII|ICx@AeAiEcBkHgBqHs@yClBs@x@KrBA@sEAuGCgDkMFmADK?e@}AaAsDu@d@QFcJf@oBDaBP{EeB{BaAOIh@oDeDkAw@[qCwAwAo@q@Eq@PCU@Hi@R]oBKkAEwC@cAx@E"}, "summary": "", "warnings": ["Walking directions are in beta.    Use caution \u2013 This route may be missing sidewalks or pedestrian paths."], "waypoint_order": []}], "status": "OK"}