{"geocoded_waypoints": [{"geocoder_status": "OK", "place_id": "ChIJofAP7qyzt0wRv-BUHrL5q-Q", "types": ["bus_station", "establishment", "point_of_interest", "transit_station"]}, {"geocoder_status": "OK", "place_id": "ChIJbf7mAXyzt0wRLhMg5l88IZ0", "types": ["bus_station", "establishment", "point_of_interest", "transit_station"]}], "routes": [{"bounds": {"northeast": {"lat": 45.4129528, "lng": -71.87001479999999}, "southwest": {"lat": 45.39467, "lng": -71.91843709999999}}, "copyrights": "Map data \u00a92018 Google", "fare": {"currency": "CAD", "text": "CA$3.30", "value": 3.3}, "legs": [{"arrival_time": {"text": "2:26pm", "time_zone": "America/Toronto", "value": 1522779977}, "departure_time": {"text": "1:51pm", "time_zone": "America/Toronto", "value": 1522777860}, "distance": {"text": "7.7 km", "value": 7722}, "duration": {"text": "35 mins", "value": 2117}, "end_address": "Sherbrooke, QC J1J 3A5, Canada", "end_location": {"lat": 45.4095666, "lng": -71.91843709999999}, "start_address": "Sherbrooke, QC J1E 2Y2, Canada", "start_location": {"lat": 45.4129528, "lng": -71.8701923}, "steps": [{"distance": {"text": "0.2 km", "value": 180}, "duration": {"text": "2 mins", "value": 130}, "end_location": {"lat": 45.412069, "lng": -71.871223}, "html_instructions": "Walk to Papineau / 12e av. Nord", "polyline": {"points": "}udtGtctuLvBc@h@fBf@fB]NBP"}, "start_location": {"lat": 45.4129528, "lng": -71.8701923}, "steps": [{"distance": {"text": "68 m", "value": 68}, "duration": {"text": "1 min", "value": 42}, "end_location": {"lat": 45.4123505, "lng": -71.87001479999999}, "html_instructions": "Head <b>south</b> on <b>13e Avenue N</b>/<b>QC-216 E</b> toward <b>Rue Papineau</b>", "polyline": {"points": "}udtGtctuLvBc@"}, "start_location": {"lat": 45.4129528, "lng": -71.8701923}, "travel_mode": "WALKING"}, {"distance": {"text": "93 m", "value": 93}, "duration": {"text": "1 min", "value": 68}, "end_location": {"lat": 45.4119378, "lng": -71.8710467}, "html_instructions": "Turn <b>right</b> onto <b>Rue Papineau</b>", "maneuver": "turn-right", "polyline": {"points": "erdtGpbtuLh@fBf@fB"}, "start_location": {"lat": 45.4123505, "lng": -71.87001479999999}, "travel_mode": "WALKING"}, {"distance": {"text": "19 m", "value": 19}, "duration": {"text": "1 min", "value": 20}, "end_location": {"lat": 45.412069, "lng": -71.871223}, "html_instructions": "Turn <b>right</b> onto <b>12e Avenue N</b>/<b>QC-216 O</b><div style=\"font-size:0.9em\">Destination will be on the left</div>", "maneuver": "turn-right", "polyline": {"points": "sodtG`ituL]NBP"}, "start_location": {"lat": 45.4119378, "lng": -71.8710467}, "travel_mode": "WALKING"}], "travel_mode": "WALKING"}, {"distance": {"text": "4.1 km", "value": 4061}, "duration": {"text": "15 mins", "value": 900}, "end_location": {"lat": 45.401387, "lng": -71.889063}, "html_instructions": "Bus towards Station du D\u00e9p\u00f4t", "polyline": {"points": "mpdtGbjtuLEW^OnAi@\\Ix@KhAA|NIfFE~RMR?@dJBlS@TrNIZ?@jEDvA?xAhBR|A[XIdBk@`Be@v@WXGn@KD?PAV?j@jDFTJv@p@tDBL~EqDJE\\S|AlIJXfDdRBZAPAJCHa@p@GJa@n@MRIPQd@g@~@Wb@SZgBtA{@f@oB~@aBx@IDcBv@gFvBiA`@a@PqAj@iDpAi@FwALMBu@Xe@XULDNDJnA|CRMx@_@b@S?B@F?B@BID"}, "start_location": {"lat": 45.412069, "lng": -71.871223}, "transit_details": {"arrival_stop": {"location": {"lat": 45.401387, "lng": -71.889063}, "name": "Station du D\u00e9p\u00f4t"}, "arrival_time": {"text": "2:08pm", "time_zone": "America/Toronto", "value": 1522778880}, "departure_stop": {"location": {"lat": 45.412069, "lng": -71.871223}, "name": "Papineau / 12e av. Nord"}, "departure_time": {"text": "1:53pm", "time_zone": "America/Toronto", "value": 1522777980}, "headsign": "Station du D\u00e9p\u00f4t", "line": {"agencies": [{"name": "Soci\u00e9t\u00e9 de Transport de Sherbrooke", "phone": "1 (819) 564-2687", "url": "http://www.sts.qc.ca/"}], "color": "#40a629", "name": "Universit\u00e9 de Sherbrooke <> CHUS - Fleurimont", "short_name": "8", "text_color": "#ffffff", "vehicle": {"icon": "//maps.gstatic.com/mapfiles/transit/iw2/6/bus2.png", "name": "Bus", "type": "BUS"}}, "num_stops": 15}, "travel_mode": "TRANSIT"}, {"distance": {"text": "3 m", "value": 3}, "duration": {"text": "1 min", "value": 2}, "end_location": {"lat": 45.401312, "lng": -71.889222}, "html_instructions": "Walk to Station du D\u00e9p\u00f4t - Quai B", "polyline": {"points": "umbtGrywuLEUDANv@"}, "start_location": {"lat": 45.401387, "lng": -71.889063}, "steps": [{"distance": {"text": "3 m", "value": 3}, "duration": {"text": "1 min", "value": 2}, "end_location": {"lat": 45.401312, "lng": -71.889222}, "html_instructions": "Head <b>south</b> on <b>Rue du D\u00e9p\u00f4t</b>", "polyline": {"points": "umbtGrywuLEUDANv@"}, "start_location": {"lat": 45.401387, "lng": -71.889063}, "travel_mode": "WALKING"}], "travel_mode": "WALKING"}, {"distance": {"text": "3.4 km", "value": 3353}, "duration": {"text": "10 mins", "value": 571}, "end_location": {"lat": 45.409355, "lng": -71.917312}, "html_instructions": "Bus towards Carrefour de l'Estrie", "polyline": {"points": "embtGrzwuLDU@@B@@?h@@@A@?@A@A?ABC?A@A?A@C?A?A@EAE?A?CAC?CK]cAf@c@Ry@^SLlIrSz@zCNj@rAzFPt@dAbEr@xCwD|BGBk@TA@k@`@a@\\cBfAoAz@UNQRoDxFmDnDKDURMNYZmAdAyKK{FG}FEm@AOvDMxEM|EA`@Gt@If@[vA?ZAN?lAD|F?^ErN?L?XAP?|D?jC@HCzDC|CA`J?BA~HM?"}, "start_location": {"lat": 45.401312, "lng": -71.889222}, "transit_details": {"arrival_stop": {"location": {"lat": 45.409355, "lng": -71.917312}, "name": "Prospect / Malouin"}, "arrival_time": {"text": "2:24pm", "time_zone": "America/Toronto", "value": 1522779871}, "departure_stop": {"location": {"lat": 45.401312, "lng": -71.889222}, "name": "Station du D\u00e9p\u00f4t - Quai B"}, "departure_time": {"text": "2:15pm", "time_zone": "America/Toronto", "value": 1522779300}, "headsign": "Carrefour de l'Estrie", "line": {"agencies": [{"name": "Soci\u00e9t\u00e9 de Transport de Sherbrooke", "phone": "1 (819) 564-2687", "url": "http://www.sts.qc.ca/"}], "color": "#1b5e20", "name": "Carrefour de l'Estrie <> Station du C\u00e9gep", "short_name": "12", "text_color": "#ffffff", "vehicle": {"icon": "//maps.gstatic.com/mapfiles/transit/iw2/6/bus2.png", "name": "Bus", "type": "BUS"}}, "num_stops": 16}, "travel_mode": "TRANSIT"}, {"distance": {"text": "0.1 km", "value": 125}, "duration": {"text": "2 mins", "value": 105}, "end_location": {"lat": 45.4095666, "lng": -71.91843709999999}, "html_instructions": "Walk to Sherbrooke, QC J1J 3A5, Canada", "polyline": {"points": "o_dtGdj}uLL@A\\?l@ARAV@VBVJr@cAB"}, "start_location": {"lat": 45.409355, "lng": -71.917312}, "steps": [{"distance": {"text": "30 m", "value": 30}, "duration": {"text": "1 min", "value": 24}, "end_location": {"lat": 45.4092972, "lng": -71.9177002}, "html_instructions": "Head <b>west</b> on <b>Rue Prospect</b> toward <b>Rue Malouin</b>", "polyline": {"points": "o_dtGdj}uLL@A\\?l@"}, "start_location": {"lat": 45.409355, "lng": -71.917312}, "travel_mode": "WALKING"}, {"distance": {"text": "58 m", "value": 58}, "duration": {"text": "1 min", "value": 49}, "end_location": {"lat": 45.40923129999999, "lng": -71.9184226}, "html_instructions": "Slight <b>right</b> to stay on <b>Rue Prospect</b>", "maneuver": "turn-slight-right", "polyline": {"points": "c_dtGrl}uLARAV@VBVJr@"}, "start_location": {"lat": 45.4092972, "lng": -71.9177002}, "travel_mode": "WALKING"}, {"distance": {"text": "37 m", "value": 37}, "duration": {"text": "1 min", "value": 32}, "end_location": {"lat": 45.4095666, "lng": -71.91843709999999}, "html_instructions": "Turn <b>right</b> onto <b>Boulevard Jacques-Cartier N</b><div style=\"font-size:0.9em\">Destination will be on the right</div>", "maneuver": "turn-right", "polyline": {"points": "u~ctGbq}uLcAB"}, "start_location": {"lat": 45.40923129999999, "lng": -71.9184226}, "travel_mode": "WALKING"}], "travel_mode": "WALKING"}], "traffic_speed_entry": [], "via_waypoint": []}], "overview_polyline": {"points": "}udtGtctuLvBc@h@fBf@fB]NBPEWnBy@\\Ix@KfQKfZSR?@dJDbTnOIFbH?xAhBRvBe@fEqApA_@t@Kh@Ar@`E|@lFBL~EqDh@Y|AlIJXfDdRBZC\\e@z@i@z@Wd@Qd@g@~@k@~@gBtA{@f@qExBmB|@qHxCsB|@iDpAi@FeBPu@Xe@XULDNtAhDlAm@b@S?B@JGHEUDANv@DUDBn@?JS?OAMK]cAf@}Ar@SLlIrSjAfEjDtNr@xCwD|BGBm@VmA~@sDbCg@b@oDxFmDnDKDc@b@YZmAdAuSSkHG]pKO~FQ|A[vA?ZA|AD|GGlP?hIAdEGbYM?L@AjACj@Dn@Jr@cAB"}, "summary": "", "warnings": ["Walking directions are in beta.    Use caution \u2013 This route may be missing sidewalks or pedestrian paths."], "waypoint_order": []}], "status": "OK"}