{"geocoded_waypoints": [{"geocoder_status": "OK", "place_id": "ChIJo-AIJwyzt0wRX6Df1ZBrfkQ", "types": ["establishment", "museum", "point_of_interest"]}, {"geocoder_status": "OK", "partial_match": true, "place_id": "ChIJhZFgMMqzt0wRLBglXHio-zY", "types": ["street_address"]}], "routes": [{"bounds": {"northeast": {"lat": 45.4267563, "lng": -71.86415749999999}, "southwest": {"lat": 45.4028433, "lng": -71.8961738}}, "copyrights": "Map data \u00a92018 Google", "fare": {"currency": "CAD", "text": "CA$3.30", "value": 3.3}, "legs": [{"arrival_time": {"text": "2:24pm", "time_zone": "America/Toronto", "value": 1522779873}, "departure_time": {"text": "1:59pm", "time_zone": "America/Toronto", "value": 1522778389}, "distance": {"text": "4.8 km", "value": 4802}, "duration": {"text": "25 mins", "value": 1484}, "end_address": "1225 Rue Despr\u00e9s, Sherbrooke, QC J1E 4A8, Canada", "end_location": {"lat": 45.4267563, "lng": -71.86415749999999}, "start_address": "225 Rue Frontenac, Sherbrooke, QC J1H 1K1, Canada", "start_location": {"lat": 45.4031946, "lng": -71.8956388}, "steps": [{"distance": {"text": "81 m", "value": 81}, "duration": {"text": "1 min", "value": 81}, "end_location": {"lat": 45.4029, "lng": -71.895851}, "html_instructions": "Walk to Mus\u00e9e de la nature et des sciences de Sherbrooke", "polyline": {"points": "}xbtGvbyuLz@hBHIWg@JM"}, "start_location": {"lat": 45.4031946, "lng": -71.8956388}, "steps": [{"distance": {"text": "54 m", "value": 54}, "duration": {"text": "1 min", "value": 56}, "end_location": {"lat": 45.4028867, "lng": -71.8961738}, "html_instructions": "Head <b>southwest</b> on <b>Rue Frontenac</b> toward <b>Rue Peel</b>", "polyline": {"points": "}xbtGvbyuLz@hB"}, "start_location": {"lat": 45.4031946, "lng": -71.8956388}, "travel_mode": "WALKING"}, {"distance": {"text": "27 m", "value": 27}, "duration": {"text": "1 min", "value": 25}, "end_location": {"lat": 45.4029, "lng": -71.895851}, "html_instructions": "Make a <b>U-turn</b> at <b>Rue Peel</b><div style=\"font-size:0.9em\">Destination will be on the right</div>", "maneuver": "uturn-left", "polyline": {"points": "awbtG`fyuLHIWg@JM"}, "start_location": {"lat": 45.4028867, "lng": -71.8961738}, "travel_mode": "WALKING"}], "travel_mode": "WALKING"}, {"distance": {"text": "1.7 km", "value": 1733}, "duration": {"text": "6 mins", "value": 346}, "end_location": {"lat": 45.412958, "lng": -71.884905}, "html_instructions": "Bus towards Chardonnerets / Marika", "polyline": {"points": "cwbtG`dyuLCBsF}KU[s@\\IF}BpA_@^MNCBu@x@sCxCcAjAKJYOGGGIIOSWCEQUe@q@Wc@MSS_@a@_AY{@K[yEuOYiAe@wAKW[w@_@o@_BgCCUwBgDOWsBaDwA}B_@m@}DeGj@w@DKDD"}, "start_location": {"lat": 45.4029, "lng": -71.895851}, "transit_details": {"arrival_stop": {"location": {"lat": 45.412958, "lng": -71.884905}, "name": "Plateau Sylvie-Daigle"}, "arrival_time": {"text": "2:06pm", "time_zone": "America/Toronto", "value": 1522778814}, "departure_stop": {"location": {"lat": 45.4029, "lng": -71.895851}, "name": "Mus\u00e9e de la nature et des sciences de Sherbrooke"}, "departure_time": {"text": "2:01pm", "time_zone": "America/Toronto", "value": 1522778468}, "headsign": "Chardonnerets / Marika", "line": {"agencies": [{"name": "Soci\u00e9t\u00e9 de Transport de Sherbrooke", "phone": "1 (819) 564-2687", "url": "http://www.sts.qc.ca/"}], "color": "#994500", "name": "Universit\u00e9 de Sherbrooke <> des Chardonnerets", "short_name": "9", "text_color": "#ffffff", "vehicle": {"icon": "//maps.gstatic.com/mapfiles/transit/iw2/6/bus2.png", "name": "Bus", "type": "BUS"}}, "num_stops": 7}, "travel_mode": "TRANSIT"}, {"distance": {"text": "2 m", "value": 2}, "duration": {"text": "1 min", "value": 1}, "end_location": {"lat": 45.413062, "lng": -71.884778}, "html_instructions": "Walk to Plateau Sylvie-Daigle", "polyline": {"points": "_vdtGr_wuLGKA@IM"}, "start_location": {"lat": 45.412958, "lng": -71.884905}, "steps": [{"distance": {"text": "2 m", "value": 2}, "duration": {"text": "1 min", "value": 1}, "end_location": {"lat": 45.413062, "lng": -71.884778}, "html_instructions": "Head <b>northwest</b> toward <b>Rue Terrill</b>", "polyline": {"points": "_vdtGr_wuLGKA@IM"}, "start_location": {"lat": 45.412958, "lng": -71.884905}, "travel_mode": "WALKING"}], "travel_mode": "WALKING"}, {"distance": {"text": "2.3 km", "value": 2251}, "duration": {"text": "4 mins", "value": 248}, "end_location": {"lat": 45.424938, "lng": -71.87175300000001}, "html_instructions": "Bus towards CHUS (Urgence)", "polyline": {"points": "svdtGz~vuLBDY`@Y\\oByC[SIK}AeCOa@iCgEO_@Os@SLKJc@Vg@Ze@^C@[VGKGOGe@?c@qGHwB?u@@qA@oLJaCHS@EiYCsR@y@Ac@@e@BUBWFk@@]@Y?oA?g@GAcAIWCyB]wBc@aAW_A_@uAq@k@_@DU"}, "start_location": {"lat": 45.413062, "lng": -71.884778}, "transit_details": {"arrival_stop": {"location": {"lat": 45.424938, "lng": -71.87175300000001}, "name": "12e av. Nord / de Montpellier"}, "arrival_time": {"text": "2:15pm", "time_zone": "America/Toronto", "value": 1522779327}, "departure_stop": {"location": {"lat": 45.413062, "lng": -71.884778}, "name": "Plateau Sylvie-Daigle"}, "departure_time": {"text": "2:11pm", "time_zone": "America/Toronto", "value": 1522779079}, "headsign": "CHUS (Urgence)", "line": {"agencies": [{"name": "Soci\u00e9t\u00e9 de Transport de Sherbrooke", "phone": "1 (819) 564-2687", "url": "http://www.sts.qc.ca/"}], "color": "#d50000", "name": "Andr\u00e9 / Hall\u00e9e <> CHUS - Fleurimont", "short_name": "7", "text_color": "#ffffff", "vehicle": {"icon": "//maps.gstatic.com/mapfiles/transit/iw2/6/bus2.png", "name": "Bus", "type": "BUS"}}, "num_stops": 8}, "travel_mode": "TRANSIT"}, {"distance": {"text": "0.7 km", "value": 735}, "duration": {"text": "8 mins", "value": 504}, "end_location": {"lat": 45.4267563, "lng": -71.86415749999999}, "html_instructions": "Walk to 1225 Rue Despr\u00e9s, Sherbrooke, QC J1E 4A8, Canada", "polyline": {"points": "{`gtGlmtuLGVJHNJFDJFj@ZDS?A?C?AAEMu@cDuQIe@]gBmDwPIa@o@gDAG"}, "start_location": {"lat": 45.424938, "lng": -71.87175300000001}, "steps": [{"distance": {"text": "58 m", "value": 58}, "duration": {"text": "1 min", "value": 42}, "end_location": {"lat": 45.42451699999999, "lng": -71.8721855}, "html_instructions": "Head <b>southwest</b> on <b>13e Avenue N</b>/<b>QC-216 E</b> toward <b>Rue Despr\u00e9s</b>", "polyline": {"points": "{`gtGlmtuLGVJHNJFDJFj@Z"}, "start_location": {"lat": 45.424938, "lng": -71.87175300000001}, "travel_mode": "WALKING"}, {"distance": {"text": "0.7 km", "value": 677}, "duration": {"text": "8 mins", "value": 462}, "end_location": {"lat": 45.4267563, "lng": -71.86415749999999}, "html_instructions": "Turn <b>left</b> onto <b>Rue Despr\u00e9s</b><div style=\"font-size:0.9em\">Destination will be on the left</div>", "maneuver": "turn-left", "polyline": {"points": "g~ftGdptuLDS?A?C?AAEMu@cDuQIe@]gBmDwPIa@o@gDAG"}, "start_location": {"lat": 45.42451699999999, "lng": -71.8721855}, "travel_mode": "WALKING"}], "travel_mode": "WALKING"}], "traffic_speed_entry": [], "via_waypoint": []}], "overview_polyline": {"points": "}xbtGvbyuLz@hBHIWg@JMCBsF}KU[s@\\gCxAm@n@y@|@wEdFKJYOOQs@cA_BiC{@{BeFqPYiAe@wAg@oA_CwDCUwBgDcCyDwBkD}DeGj@w@DKDDGKA@IMBDs@~@oByC[SgBqCOa@iCgEO_@Os@_@XkAr@i@`@[VGKOu@?c@qGHmD@qA@oLJaCHS@EiYAmT?iAFm@HiA@iB?g@GA{AMqFaAaAW_A_@aCqADUGVZTRLj@ZDS?EsDsS_FgVq@oD"}, "summary": "", "warnings": ["Walking directions are in beta.    Use caution \u2013 This route may be missing sidewalks or pedestrian paths."], "waypoint_order": []}], "status": "OK"}