{"geocoded_waypoints": [{"geocoder_status": "OK", "place_id": "ChIJ02YBQaizt0wRLICZB_UN5DQ", "types": ["establishment", "point_of_interest"]}, {"geocoder_status": "OK", "partial_match": true, "place_id": "ChIJhZFgMMqzt0wRLBglXHio-zY", "types": ["street_address"]}], "routes": [{"bounds": {"northeast": {"lat": 45.4267563, "lng": -71.86415749999999}, "southwest": {"lat": 45.409721, "lng": -71.885128}}, "copyrights": "Map data \u00a92018 Google", "fare": {"currency": "CAD", "text": "CA$3.30", "value": 3.3}, "legs": [{"arrival_time": {"text": "2:24pm", "time_zone": "America/Toronto", "value": 1522779873}, "departure_time": {"text": "2:07pm", "time_zone": "America/Toronto", "value": 1522778853}, "distance": {"text": "3.8 km", "value": 3794}, "duration": {"text": "17 mins", "value": 1020}, "end_address": "1225 Rue Despr\u00e9s, Sherbrooke, QC J1E 4A8, Canada", "end_location": {"lat": 45.4267563, "lng": -71.86415749999999}, "start_address": "300 Rue du C\u00e9gep, Sherbrooke, QC J1E 1W9, Canada", "start_location": {"lat": 45.41002, "lng": -71.8815159}, "steps": [{"distance": {"text": "0.1 km", "value": 98}, "duration": {"text": "1 min", "value": 70}, "end_location": {"lat": 45.409721, "lng": -71.882429}, "html_instructions": "Walk to \u00c9difice Expo-Sherbrooke", "polyline": {"points": "scdtGnjvuLFnB@jAD?H@D@HDFDHU"}, "start_location": {"lat": 45.41002, "lng": -71.8815159}, "steps": [{"distance": {"text": "74 m", "value": 74}, "duration": {"text": "1 min", "value": 52}, "end_location": {"lat": 45.4099713, "lng": -71.8824613}, "html_instructions": "Head <b>west</b>", "polyline": {"points": "scdtGnjvuLFnB@jA"}, "start_location": {"lat": 45.41002, "lng": -71.8815159}, "travel_mode": "WALKING"}, {"distance": {"text": "24 m", "value": 24}, "duration": {"text": "1 min", "value": 18}, "end_location": {"lat": 45.409721, "lng": -71.882429}, "html_instructions": "Turn <b>left</b><div style=\"font-size:0.9em\">Destination will be on the left</div>", "maneuver": "turn-left", "polyline": {"points": "icdtGjpvuLD?H@D@HDFDHU"}, "start_location": {"lat": 45.4099713, "lng": -71.8824613}, "travel_mode": "WALKING"}], "travel_mode": "WALKING"}, {"distance": {"text": "3.0 km", "value": 2961}, "duration": {"text": "7 mins", "value": 403}, "end_location": {"lat": 45.424938, "lng": -71.87175300000001}, "html_instructions": "Bus towards CHUS (Urgence)", "polyline": {"points": "wadtGdpvuLMFAACIICEAGDqDrCy@\\{Ab@aA\\FV^`E?JBJDHHDF@F?HCLIDKBM?Mc@}DGm@aA\\aATOFGHMLWp@IFe@z@q@~@Y`@Y\\oByC[SIK}AeCOa@iCgEO_@Os@SLKJc@Vg@Ze@^C@[VGKGOGe@?c@qGHwB?u@@qA@oLJaCHS@EiYCsR@y@Ac@@e@BUBWFk@@]@Y?oA?g@GAcAIWCyB]wBc@aAW_A_@uAq@k@_@DU"}, "start_location": {"lat": 45.409721, "lng": -71.882429}, "transit_details": {"arrival_stop": {"location": {"lat": 45.424938, "lng": -71.87175300000001}, "name": "12e av. Nord / de Montpellier"}, "arrival_time": {"text": "2:15pm", "time_zone": "America/Toronto", "value": 1522779327}, "departure_stop": {"location": {"lat": 45.409721, "lng": -71.882429}, "name": "\u00c9difice Expo-Sherbrooke"}, "departure_time": {"text": "2:08pm", "time_zone": "America/Toronto", "value": 1522778924}, "headsign": "CHUS (Urgence)", "line": {"agencies": [{"name": "Soci\u00e9t\u00e9 de Transport de Sherbrooke", "phone": "1 (819) 564-2687", "url": "http://www.sts.qc.ca/"}], "color": "#d50000", "name": "Andr\u00e9 / Hall\u00e9e <> CHUS - Fleurimont", "short_name": "7", "text_color": "#ffffff", "vehicle": {"icon": "//maps.gstatic.com/mapfiles/transit/iw2/6/bus2.png", "name": "Bus", "type": "BUS"}}, "num_stops": 10}, "travel_mode": "TRANSIT"}, {"distance": {"text": "0.7 km", "value": 735}, "duration": {"text": "8 mins", "value": 504}, "end_location": {"lat": 45.4267563, "lng": -71.86415749999999}, "html_instructions": "Walk to 1225 Rue Despr\u00e9s, Sherbrooke, QC J1E 4A8, Canada", "polyline": {"points": "{`gtGlmtuLGVJHNJFDJFj@ZDS?A?C?AAEMu@cDuQIe@]gBmDwPIa@o@gDAG"}, "start_location": {"lat": 45.424938, "lng": -71.87175300000001}, "steps": [{"distance": {"text": "58 m", "value": 58}, "duration": {"text": "1 min", "value": 42}, "end_location": {"lat": 45.42451699999999, "lng": -71.8721855}, "html_instructions": "Head <b>southwest</b> on <b>13e Avenue N</b>/<b>QC-216 E</b> toward <b>Rue Despr\u00e9s</b>", "polyline": {"points": "{`gtGlmtuLGVJHNJFDJFj@Z"}, "start_location": {"lat": 45.424938, "lng": -71.87175300000001}, "travel_mode": "WALKING"}, {"distance": {"text": "0.7 km", "value": 677}, "duration": {"text": "8 mins", "value": 462}, "end_location": {"lat": 45.4267563, "lng": -71.86415749999999}, "html_instructions": "Turn <b>left</b> onto <b>Rue Despr\u00e9s</b><div style=\"font-size:0.9em\">Destination will be on the left</div>", "maneuver": "turn-left", "polyline": {"points": "g~ftGdptuLDS?A?C?AAEMu@cDuQIe@]gBmDwPIa@o@gDAG"}, "start_location": {"lat": 45.42451699999999, "lng": -71.8721855}, "travel_mode": "WALKING"}], "travel_mode": "WALKING"}], "traffic_speed_entry": [], "via_waypoint": []}], "overview_polyline": {"points": "scdtGnjvuLHzDN@NFFDHUMFAAMMMBqDrCy@\\}C`Af@xEBVNNN@VMHY?Mc@}DGm@aA\\aATOFUVWp@IFe@z@q@~@s@~@oByC[SgBqCOa@iCgEO_@Os@_@XkAr@i@`@[VGKOu@?c@qGHmD@qA@oLJaCHS@EiYAmT?iAPwB@iB?g@GA{AMqFaAaAW_A_@aCqADUGVZTRLj@ZDS?EAGyEyWwDyQq@oD"}, "summary": "", "warnings": ["Walking directions are in beta.    Use caution \u2013 This route may be missing sidewalks or pedestrian paths."], "waypoint_order": []}], "status": "OK"}