{"geocoded_waypoints": [{"geocoder_status": "OK", "partial_match": true, "place_id": "ChIJBUnsLhGzt0wRgJewKc9fr84", "types": ["establishment", "point_of_interest", "shopping_mall"]}, {"geocoder_status": "OK", "place_id": "ChIJlTIswquzt0wRLH_04FarzWo", "types": ["establishment", "point_of_interest", "school"]}], "routes": [{"bounds": {"northeast": {"lat": 45.41324400000001, "lng": -71.8742105}, "southwest": {"lat": 45.3952868, "lng": -71.89867}}, "copyrights": "Map data \u00a92018 Google", "fare": {"currency": "CAD", "text": "CA$3.30", "value": 3.3}, "legs": [{"arrival_time": {"text": "2:20pm", "time_zone": "America/Toronto", "value": 1522779614}, "departure_time": {"text": "1:54pm", "time_zone": "America/Toronto", "value": 1522778097}, "distance": {"text": "4.9 km", "value": 4878}, "duration": {"text": "25 mins", "value": 1517}, "end_address": "655 Rue Papineau, Sherbrooke, QC J1E 1Y6, Canada", "end_location": {"lat": 45.4108449, "lng": -71.8742105}, "start_address": "340 Rue Belv\u00e9d\u00e8re S, Sherbrooke, QC J1H 4B5, Canada", "start_location": {"lat": 45.3952868, "lng": -71.8947781}, "steps": [{"distance": {"text": "0.2 km", "value": 160}, "duration": {"text": "2 mins", "value": 122}, "end_location": {"lat": 45.395865, "lng": -71.895999}, "html_instructions": "Walk to Belv\u00e9d\u00e8re Sud (le Centre Sherbrooke)", "polyline": {"points": "qgatGj}xuLAp@GjCAd@Cb@cBC@O"}, "start_location": {"lat": 45.3952868, "lng": -71.8947781}, "steps": [{"distance": {"text": "0.1 km", "value": 104}, "duration": {"text": "1 min", "value": 87}, "end_location": {"lat": 45.3953668, "lng": -71.8961003}, "html_instructions": "Head <b>west</b> toward <b>Rue Belv\u00e9d\u00e8re S</b>", "polyline": {"points": "qgatGj}xuLAp@GjCAd@Cb@"}, "start_location": {"lat": 45.3952868, "lng": -71.8947781}, "travel_mode": "WALKING"}, {"distance": {"text": "56 m", "value": 56}, "duration": {"text": "1 min", "value": 35}, "end_location": {"lat": 45.395865, "lng": -71.895999}, "html_instructions": "Turn <b>right</b> onto <b>Rue Belv\u00e9d\u00e8re S</b><div style=\"font-size:0.9em\">Destination will be on the right</div>", "maneuver": "turn-right", "polyline": {"points": "ahatGreyuLcBC@O"}, "start_location": {"lat": 45.3953668, "lng": -71.8961003}, "travel_mode": "WALKING"}], "travel_mode": "WALKING"}, {"distance": {"text": "4.3 km", "value": 4307}, "duration": {"text": "18 mins", "value": 1084}, "end_location": {"lat": 45.40796599999999, "lng": -71.87609499999999}, "html_instructions": "Bus towards Chardonnerets / Marika", "polyline": {"points": "ckatG~dyuL?Nu@@KDG?yCQgAAC?i@?KDu@^m@d@o@b@s@d@mEjCGBk@TA@k@`@a@\\cBfAoAz@UNYy@]u@c@s@sAqCCQAIcC}EsF}KU[s@\\IF}BpA_@^MNCBu@x@sCxCcAjAKJYOGGGIIOSWCEQUe@q@Wc@MSS_@a@_AY{@K[yEuOYiAe@wAKW[w@_@o@_BgCCUwBgDOWsBaDwA}B_@m@}DeGj@w@DKlAuBHYVq@LMFING`AUFV^`E?JBJDHHDF@F?HCLIDKBM?MQaBYiCzAc@x@]pDsCFED@HBBHv@pDHZjIw@nCWNE\\_@^e@V_@JMyAqCCEMCsBiD[s@Wc@AEGUG_@AOAyAG{@?wE?eLN?"}, "start_location": {"lat": 45.395865, "lng": -71.895999}, "transit_details": {"arrival_stop": {"location": {"lat": 45.40796599999999, "lng": -71.87609499999999}, "name": "King Est / 7e av. Sud"}, "arrival_time": {"text": "2:15pm", "time_zone": "America/Toronto", "value": 1522779304}, "departure_stop": {"location": {"lat": 45.395865, "lng": -71.895999}, "name": "Belv\u00e9d\u00e8re Sud (le Centre Sherbrooke)"}, "departure_time": {"text": "1:57pm", "time_zone": "America/Toronto", "value": 1522778220}, "headsign": "Chardonnerets / Marika", "line": {"agencies": [{"name": "Soci\u00e9t\u00e9 de Transport de Sherbrooke", "phone": "1 (819) 564-2687", "url": "http://www.sts.qc.ca/"}], "color": "#994500", "name": "Universit\u00e9 de Sherbrooke <> des Chardonnerets", "short_name": "9", "text_color": "#ffffff", "vehicle": {"icon": "//maps.gstatic.com/mapfiles/transit/iw2/6/bus2.png", "name": "Bus", "type": "BUS"}}, "num_stops": 19}, "travel_mode": "TRANSIT"}, {"distance": {"text": "0.4 km", "value": 411}, "duration": {"text": "6 mins", "value": 333}, "end_location": {"lat": 45.4108449, "lng": -71.8742105}, "html_instructions": "Walk to 655 Rue Papineau, Sherbrooke, QC J1E 1Y6, Canada", "polyline": {"points": "yvctGphuuLS??u@aC?_C?yDDgAuEe@qB"}, "start_location": {"lat": 45.40796599999999, "lng": -71.87609499999999}, "steps": [{"distance": {"text": "22 m", "value": 22}, "duration": {"text": "1 min", "value": 17}, "end_location": {"lat": 45.4080676, "lng": -71.8758186}, "html_instructions": "Head <b>east</b> on <b>Rue King E</b>/<b>QC-112 E</b> toward <b>7e Avenue N</b>", "polyline": {"points": "yvctGphuuLS??u@"}, "start_location": {"lat": 45.40796599999999, "lng": -71.87609499999999}, "travel_mode": "WALKING"}, {"distance": {"text": "0.2 km", "value": 247}, "duration": {"text": "3 mins", "value": 203}, "end_location": {"lat": 45.4102875, "lng": -71.8758522}, "html_instructions": "Turn <b>left</b> onto <b>7e Avenue N</b>", "maneuver": "turn-left", "polyline": {"points": "mwctGzfuuLaC?_C?yDD"}, "start_location": {"lat": 45.4080676, "lng": -71.8758186}, "travel_mode": "WALKING"}, {"distance": {"text": "0.1 km", "value": 142}, "duration": {"text": "2 mins", "value": 113}, "end_location": {"lat": 45.4108449, "lng": -71.8742105}, "html_instructions": "Turn <b>right</b> onto <b>Rue Papineau</b><div style=\"font-size:0.9em\">Destination will be on the left</div>", "maneuver": "turn-right", "polyline": {"points": "iedtG`guuLgAuEe@qB"}, "start_location": {"lat": 45.4102875, "lng": -71.8758522}, "travel_mode": "WALKING"}], "travel_mode": "WALKING"}], "traffic_speed_entry": [], "via_waypoint": []}], "overview_polyline": {"points": "qgatGj}xuLOfGcBC@O?Nu@@KDG?yCQgAAm@?aAd@}AhAaGpDu@ZmA~@sDbCUNYy@aAiBsAqCCQeCgFsF}KU[}@d@}BpA_@^QRyGjHa@WQYoAeBe@w@u@_Be@wAyEuOYiAq@oB[w@_@o@_BgCCUgC_EkE_H}EsHp@cAlAuBHYVq@LMVQ`AUFV^lEHTPFPCLIDKB[k@kFzAc@x@]xDyCNDz@zDHZjIw@~C]|@eAb@m@}AwCMCsBiDs@wAI[Io@AyAG{@?}RN?S??u@aC?_C?yDDmBgI"}, "summary": "", "warnings": ["Walking directions are in beta.    Use caution \u2013 This route may be missing sidewalks or pedestrian paths."], "waypoint_order": []}], "status": "OK"}